{"stations": [{"addressNumber": "S/N", "districtCode": null, "altitude": null, "stationType": "BIKE,TPV", "address": "DR. ANDRADE ARCOS DE BEL\u00c9N", "zipCode": null, "location": {"lat": 19.426611, "lon": -99.14447}, "districtName": null, "name": "448 DR. ANDRADE - ARCOS DE BEL\u00c9N", "nearbyStations": [448], "id": 448}, {"addressNumber": "S/N", "districtCode": "1", "altitude": null, "stationType": "BIKE", "address": "443 - Bruno Trave-Avenida M\u00e9xico-Coyoacan", "zipCode": "3340", "location": {"lat": 19.359655, "lon": -99.162025}, "districtName": "Ampliaci\u00f3n Granada", "name": "443 BRUNO TRAVEN-GOLONDRINAS", "nearbyStations": [432, 442, 444], "id": 443}, {"addressNumber": "S/N", "districtCode": "1", "altitude": null, "stationType": "BIKE", "address": "416 - Recreo-Parroqu\u00eda", "zipCode": "3104", "location": {"lat": 19.371308, "lon": -99.177607}, "districtName": "Ampliaci\u00f3n Granada", "name": "416 RECREO-PARROQU\u00cdA", "nearbyStations": [390, 391, 415], "id": 416}, {"addressNumber": "S/N", "districtCode": "1", "altitude": null, "stationType": "BIKE", "address": "437 - Moras-Comunal", "zipCode": "3240", "location": {"lat": 19.36480833, "lon": -99.17602222}, "districtName": "Ampliaci\u00f3n Granada", "name": "437 MORAS-COMUNAL", "nearbyStations": [423, 436, 438], "id": 437}, {"addressNumber": "S/N", "districtCode": "1", "altitude": null, "stationType": "BIKE", "address": "438 - Adolfo Prieto-Jos\u00e9 Mar\u00eda Olloqui", "zipCode": "3240", "location": {"lat": 19.36479722, "lon": -99.17458333}, "districtName": "Ampliaci\u00f3n Granada", "name": "438 ADOLFO PRIETO-JOS\u00c9 MAR\u00cdA OLLOQUI", "nearbyStations": [434, 435, 437], "id": 438}, {"addressNumber": "S/N", "districtCode": "1", "altitude": null, "stationType": "BIKE", "address": "440 - Real De Mayorazgo-Puente Xoco", "zipCode": "3330", "location": {"lat": 19.36065, "lon": -99.168669}, "districtName": "Ampliaci\u00f3n Granada", "name": "440 REAL DE MAYORAZGO-PUENTE XOCO", "nearbyStations": [433, 439, 441], "id": 440}, {"addressNumber": "S/N", "districtCode": "1", "altitude": null, "stationType": "BIKE,TPV", "address": "347 - Pennsylvania-Maximino Avila Camacho", "zipCode": "3710", "location": {"lat": 19.384378, "lon": -99.176097}, "districtName": "Ampliaci\u00f3n Granada", "name": "347 PENNSYLVANIA-MAXIMINO AVILA CAMACHO", "nearbyStations": [334, 346, 348], "id": 347}, {"addressNumber": "S/N", "districtCode": "1", "altitude": null, "stationType": "BIKE", "address": "350 - Jose Clemente Orozco-Correggio", "zipCode": "3710", "location": {"lat": 19.384062, "lon": -99.181482}, "districtName": "Ampliaci\u00f3n Granada", "name": "350 JOSE CLEMENTE OROZCO-CORREGGIO", "nearbyStations": [349, 352], "id": 350}, {"addressNumber": "S/N", "districtCode": "1", "altitude": null, "stationType": "BIKE", "address": "356 - Matias Romero -Adolfo Prieto", "zipCode": "3100", "location": {"lat": 19.381292, "lon": -99.170171}, "districtName": "Ampliaci\u00f3n Granada", "name": "356 MATIAS ROMERO -ADOLFO PRIETO", "nearbyStations": [355, 357, 372], "id": 356}, {"addressNumber": "S/N", "districtCode": "1", "altitude": null, "stationType": "BIKE", "address": "361 - Porfirio D\u00edaz-Av. Insurgentes", "zipCode": "3100", "location": {"lat": 19.3804457, "lon": -99.1762233}, "districtName": "Ampliaci\u00f3n Granada", "name": "361 PORFIRIO D\u00cdAZ-AV. INSURGENTES", "nearbyStations": [354, 369, 370], "id": 361}, {"addressNumber": "S/N", "districtCode": "1", "altitude": null, "stationType": "BIKE", "address": "368 - Porfirio D\u00edaz-Cincinatti", "zipCode": "3740", "location": {"lat": 19.379246, "lon": -99.179344}, "districtName": "Ampliaci\u00f3n Granada", "name": "368 PORFIRIO D\u00cdAZ-CINCINATTI ", "nearbyStations": [366, 367, 369], "id": 368}, {"addressNumber": "S/N", "districtCode": "1", "altitude": null, "stationType": "BIKE,TPV", "address": "369 - Porfirio D\u00edaz-Av. Insurgentes", "zipCode": "3740", "location": {"lat": 19.379884, "lon": -99.177478}, "districtName": "Ampliaci\u00f3n Granada", "name": "369 PORFIRIO D\u00cdAZ-AV. INSURGENTES", "nearbyStations": [367, 368], "id": 369}, {"addressNumber": "S/N", "districtCode": "1", "altitude": null, "stationType": "BIKE,TPV", "address": "372 - Dr. Roberto Gayol-Tlacoquemecatl", "zipCode": "3104", "location": {"lat": 19.37797, "lon": -99.170289}, "districtName": "Ampliaci\u00f3n Granada", "name": "372 DR. ROBERTO GAYOL-TLACOQUEMECATL", "nearbyStations": [373, 378, 379], "id": 372}, {"addressNumber": "S/N", "districtCode": "1", "altitude": null, "stationType": "BIKE", "address": "379 - Dr. Roberto Gayol-Miguel Laurent", "zipCode": "3104", "location": {"lat": 19.375751, "lon": -99.17084}, "districtName": "Ampliaci\u00f3n Granada", "name": "379 DR. ROBERTO GAYOL-MIGUEL LAURENT", "nearbyStations": [378, 380, 395], "id": 379}, {"addressNumber": "S/N", "districtCode": "1", "altitude": null, "stationType": "BIKE,TPV", "address": "402 - Uxmal-Municipio Libre", "zipCode": "3310", "location": {"lat": 19.3709452, "lon": -99.1587223}, "districtName": "Ampliaci\u00f3n Granada", "name": "402 UXMAL-MUNICIPIO LIBRE", "nearbyStations": [401, 403, 405], "id": 402}, {"addressNumber": "S/N", "districtCode": "1", "altitude": null, "stationType": "BIKE,TPV", "address": "003 - Reforma - Insurgentes", "zipCode": "06500", "location": {"lat": 19.431655, "lon": -99.158668}, "districtName": "Ampliaci\u00f3n Granada", "name": "3 REFORMA-INSURGENTES", "nearbyStations": [8, 20, 86], "id": 3}, {"addressNumber": "S/N", "districtCode": "1", "altitude": null, "stationType": "BIKE", "address": "012 - R\u00edo Lerma - Villalongin", "zipCode": "06500", "location": {"lat": 19.432313, "lon": -99.161597}, "districtName": "Ampliaci\u00f3n Granada", "name": "12 RIO LERMA-VILLALONGIN", "nearbyStations": [11, 19, 20, 85], "id": 12}, {"addressNumber": "S/N", "districtCode": "1", "altitude": null, "stationType": "BIKE,TPV", "address": "013 - Reforma - Rio Rodano", "zipCode": "06500", "location": {"lat": 19.423778, "lon": -99.175558}, "districtName": "Ampliaci\u00f3n Granada", "name": "13 REFORMA-RIO RODANO", "nearbyStations": [7, 14, 21], "id": 13}, {"addressNumber": "S/N", "districtCode": "1", "altitude": null, "stationType": "BIKE", "address": "016 - Reforma - Rio Guadalquivir", "zipCode": "06500", "location": {"lat": 19.42653, "lon": -99.169164}, "districtName": "Ampliaci\u00f3n Granada", "name": "16 REFORMA-RIO GUADALQUIVIR", "nearbyStations": [9, 23, 24], "id": 16}, {"addressNumber": "S/N", "districtCode": "1", "altitude": null, "stationType": "BIKE,TPV", "address": "017 - Reforma - Rio Tiber", "zipCode": "06500", "location": {"lat": 19.427501, "lon": -99.167125}, "districtName": "Ampliaci\u00f3n Granada", "name": "17 REFORMA-RIO TIBER", "nearbyStations": [16, 18, 25], "id": 17}, {"addressNumber": "S/N", "districtCode": "1", "altitude": null, "stationType": "BIKE,TPV", "address": "019 - Reforma - Rio Neva", "zipCode": "06500", "location": {"lat": 19.43001, "lon": -99.161675}, "districtName": "Ampliaci\u00f3n Granada", "name": "19 REFORMA-RIO NEVA", "nearbyStations": [12, 20, 27], "id": 19}, {"addressNumber": "S/N", "districtCode": "1", "altitude": null, "stationType": "BIKE,TPV", "address": "021 - Reforma - Lieja", "zipCode": "06500", "location": {"lat": 19.423317, "lon": -99.175124}, "districtName": "Ampliaci\u00f3n Granada", "name": "21 REFORMA-LIEJA", "nearbyStations": [7, 13, 14, 28], "id": 21}, {"addressNumber": "S/N", "districtCode": "1", "altitude": null, "stationType": "BIKE,TPV", "address": "036 - Puebla - Veracruz", "zipCode": "06140", "location": {"lat": 19.419725, "lon": -99.175778}, "districtName": "Ampliaci\u00f3n Granada", "name": "36 PUEBLA-VERACRUZ", "nearbyStations": [37, 41, 44], "id": 36}, {"addressNumber": "S/N", "districtCode": "1", "altitude": null, "stationType": "BIKE,TPV", "address": "047 - Glorieta Cibeles - Oaxaca", "zipCode": "06700", "location": {"lat": 19.419515, "lon": -99.166299}, "districtName": "Ampliaci\u00f3n Granada", "name": "47 GLORIETA CIBELES-OAXACA", "nearbyStations": [42, 51, 56], "id": 47}, {"addressNumber": "S/N", "districtCode": "1", "altitude": null, "stationType": "BIKE,TPV", "address": "041 - Reforma - Av. de la Rep\u00fablica", "zipCode": "06700", "location": {"lat": 19.435637, "lon": -99.150137}, "districtName": "Ampliaci\u00f3n Granada", "name": "41 REFORMA-AV. DE LA REPUBLICA", "nearbyStations": [29], "id": 41}, {"addressNumber": "S/N", "districtCode": "1", "altitude": null, "stationType": "BIKE,TPV", "address": "055 - 5 de Mayo - Bol\u00edvar", "zipCode": "06700", "location": {"lat": 19.434356, "lon": -99.138064}, "districtName": "Ampliaci\u00f3n Granada", "name": "55 5 DE MAYO-BOLIVAR", "nearbyStations": [65, 87, 88], "id": 55}, {"addressNumber": "S/N", "districtCode": "1", "altitude": null, "stationType": "BIKE", "address": "057 - Cuernavaca - Juan Escutia", "zipCode": "06140", "location": {"lat": 19.414903, "lon": -99.17495}, "districtName": "Ampliaci\u00f3n Granada", "name": "57 CUERNAVACA-JUAN ESCUTIA", "nearbyStations": [48, 49, 50, 62], "id": 57}, {"addressNumber": "S/N", "districtCode": "1", "altitude": null, "stationType": "BIKE", "address": "066 - Mazatl\u00e1n - Francisco Marquez", "zipCode": "06170", "location": {"lat": 19.411402, "lon": -99.178666}, "districtName": "Ampliaci\u00f3n Granada", "name": "66 MAZATLAN-FRANCISCO MARQUEZ", "nearbyStations": [65, 72], "id": 66}, {"addressNumber": "S/N", "districtCode": "1", "altitude": null, "stationType": "BIKE", "address": "074 - Nuevo Le\u00f3n - Ozulama", "zipCode": "06100", "location": {"lat": 19.410343, "lon": -99.172831}, "districtName": "Ampliaci\u00f3n Granada", "name": "74 NUEVO LEON-OZULAMA", "nearbyStations": [63, 68], "id": 74}, {"addressNumber": "S/N", "districtCode": "1", "altitude": null, "stationType": "BIKE,TPV", "address": "063 - Nuevo Le\u00f3n - Laredo", "zipCode": "06100", "location": {"lat": 19.413681, "lon": -99.171531}, "districtName": "Ampliaci\u00f3n Granada", "name": "63 NUEVO LEON- LAREDO", "nearbyStations": [76, 77], "id": 63}, {"addressNumber": "S/N", "districtCode": "1", "altitude": null, "stationType": "BIKE,TPV", "address": "070 - Parque M\u00e9xico - Michoacan", "zipCode": "06100", "location": {"lat": 19.411272, "lon": -99.169718}, "districtName": "Ampliaci\u00f3n Granada", "name": "70 PARQUE MEXICO-MICHOACAN", "nearbyStations": [69, 76], "id": 70}, {"addressNumber": "S/N", "districtCode": "1", "altitude": null, "stationType": "BIKE", "address": "088 - 2a Cerrada de 5 de Mayo - Palma", "zipCode": null, "location": {"lat": 19.433815, "lon": -99.135303}, "districtName": "Ampliaci\u00f3n Granada", "name": "88 2A CDA 5 DE MAYO-PALMA", "nearbyStations": [55, 89], "id": 88}, {"addressNumber": "S/N", "districtCode": "1", "altitude": null, "stationType": "BIKE", "address": "072 - Mazatl\u00e1n - Alfonso Reyes", "zipCode": "06170", "location": {"lat": 19.409893, "lon": -99.179544}, "districtName": "Ampliaci\u00f3n Granada", "name": "72 MAZATLAN-ALFONSO REYES", "nearbyStations": [65, 66, 75], "id": 72}, {"addressNumber": "S/N", "districtCode": "1", "altitude": null, "stationType": "BIKE,TPV", "address": "086 - Sullivan-Insurgentes", "zipCode": "06470", "location": {"lat": 19.432378, "lon": -99.159077}, "districtName": "Ampliaci\u00f3n Granada", "name": "86 SULLIVAN-INSURGENTES", "nearbyStations": [12, 20], "id": 86}, {"addressNumber": "S/N", "districtCode": "1", "altitude": null, "stationType": "BIKE", "address": "102 - Echeveste-Bolivar", "zipCode": null, "location": {"lat": 19.42821, "lon": -99.13949}, "districtName": "Ampliaci\u00f3n Granada", "name": "102 ECHEVESTE-BOLIVAR", "nearbyStations": [101, 104, 109], "id": 102}, {"addressNumber": "S/N", "districtCode": "1", "altitude": null, "stationType": "BIKE", "address": "110 - Dr. Valenzuela-Dr. R\u00edo de la loza", "zipCode": null, "location": {"lat": 19.42513, "lon": -99.14339}, "districtName": "Ampliaci\u00f3n Granada", "name": "110 DR. VALENZUELA-DR. R\u00cdO DE LA LOZA", "nearbyStations": [107, 108, 122], "id": 110}, {"addressNumber": "S/N", "districtCode": "1", "altitude": null, "stationType": "BIKE", "address": "111 GUILLERMO PRIETO-JOAQU\u00cdN VEL\u00c1ZQUEZ DE LE\u00d3N", "zipCode": null, "location": {"lat": 19.438371, "lon": -99.166474}, "districtName": "Ampliaci\u00f3n Granada", "name": "111 GUILLERMO PRIETO-JOAQU\u00cdN VEL\u00c1ZQUEZ DE LE\u00d3N", "nearbyStations": [103, 160, 183], "id": 111}, {"addressNumber": "S/N", "districtCode": "1", "altitude": null, "stationType": "BIKE", "address": "112 - Av. Morelos-Abraham Gonz\u00e1lez", "zipCode": "06500", "location": {"lat": 19.432819, "lon": -99.151734}, "districtName": "Ampliaci\u00f3n Granada", "name": "112 AV. MORELOS-ABRAHAM GONZALEZ", "nearbyStations": [98, 113, 114], "id": 112}, {"addressNumber": "S/N", "districtCode": "1", "altitude": null, "stationType": "BIKE", "address": "123 - Claudio Bernard-Dr. Lavista", "zipCode": "06500", "location": {"lat": 19.424161, "lon": -99.153117}, "districtName": "Ampliaci\u00f3n Granada", "name": "123 CLAUDIO BERNARD-DR. LAVISTA", "nearbyStations": [124, 133], "id": 123}, {"addressNumber": "S/N", "districtCode": "1", "altitude": null, "stationType": "BIKE", "address": "150 - Campeche-Medell\u00edn", "zipCode": null, "location": {"lat": 19.409965, "lon": -99.164292}, "districtName": "Ampliaci\u00f3n Granada", "name": "150 CAMPECHE-MEDELL\u00cdN", "nearbyStations": [146, 151, 152], "id": 150}, {"addressNumber": "S/N", "districtCode": "1", "altitude": null, "stationType": "BIKE,TPV", "address": "154 - Tuxpan-Tlaxcala", "zipCode": null, "location": {"lat": 19.406683, "lon": -99.167962}, "districtName": "Ampliaci\u00f3n Granada", "name": "154 TUXPAN-TLAXCALA", "nearbyStations": [152, 153, 157], "id": 154}, {"addressNumber": "S/N", "districtCode": "1", "altitude": null, "stationType": "BIKE", "address": "171 - Comercio-Jose Mart\u00ed", "zipCode": null, "location": {"lat": 19.402584, "lon": -99.178199}, "districtName": "Ampliaci\u00f3n Granada", "name": "171 COMERCIO-JOSE MART\u00cd", "nearbyStations": [167, 168, 173], "id": 171}, {"addressNumber": "S/N", "districtCode": "1", "altitude": null, "stationType": "BIKE", "address": "173 - Miner\u00eda-Jose Mart\u00ed", "zipCode": null, "location": {"lat": 19.401682, "lon": -99.176398}, "districtName": "Ampliaci\u00f3n Granada", "name": "173 MINER\u00cdA-JOS\u00c9 MART\u00cd", "nearbyStations": [168, 169, 171], "id": 173}, {"addressNumber": "S/N", "districtCode": "1", "altitude": null, "stationType": "BIKE,TPV", "address": "174 - Joaqu\u00edn Garcia-Ignacio Manuel Altamirano", "zipCode": null, "location": {"lat": 19.44111, "lon": -99.16164}, "districtName": "Ampliaci\u00f3n Granada", "name": "174 JOAQU\u00cdN GARCIA-IGNACIO MANUEL ALTAMIRANO", "nearbyStations": [160, 183, 254], "id": 174}, {"addressNumber": "S/N", "districtCode": "1", "altitude": null, "stationType": "BIKE", "address": "204 - Temistocles-Homero", "zipCode": "11510", "location": {"lat": 19.435882, "lon": -99.19152}, "districtName": "Ampliaci\u00f3n Granada", "name": "204 TEMISTOCLES-HOMERO", "nearbyStations": [196, 200, 245], "id": 204}, {"addressNumber": "S/N", "districtCode": "1", "altitude": null, "stationType": "BIKE,TPV", "address": "197 - Miguel de Cervantes Saavedra-Ferrocarril de Cuernavaca", "zipCode": null, "location": {"lat": 19.440077, "lon": -99.204316}, "districtName": "Ampliaci\u00f3n Granada", "name": "197 MIGUEL DE CERVANTES-FC DE CUERNAVACA", "nearbyStations": [197], "id": 197}, {"addressNumber": "S/N", "districtCode": "1", "altitude": null, "stationType": "BIKE", "address": "227 - Campos El\u00edseos-Perif\u00e9rico", "zipCode": null, "location": {"lat": 19.431791, "lon": -99.207373}, "districtName": "Ampliaci\u00f3n Granada", "name": "227 CAMPOS EL\u00cdSEOS-PERIF\u00c9RICO", "nearbyStations": [213, 219, 220], "id": 227}, {"addressNumber": "S/N", "districtCode": "1", "altitude": null, "stationType": "BIKE", "address": "181 - Benjamin Franklin-Saltillo", "zipCode": null, "location": {"lat": 19.404976, "lon": -99.175095}, "districtName": "Ampliaci\u00f3n Granada", "name": "181 BENJAMIN FRANKLIN-SALTILLO", "nearbyStations": [168, 169, 179], "id": 181}, {"addressNumber": "S/N", "districtCode": "1", "altitude": null, "stationType": "BIKE", "address": "232 - Taine -  Rub\u00e9n Dar\u00edo", "zipCode": null, "location": {"lat": 19.42894, "lon": -99.185389}, "districtName": "Ampliaci\u00f3n Granada", "name": "232 TAINE-RUBEN DAR\u00cdO ", "nearbyStations": [224, 225, 226], "id": 232}, {"addressNumber": "S/N", "districtCode": "1", "altitude": null, "stationType": "BIKE,TPV", "address": "237 - Andr\u00e9s Bello-Elliot", "zipCode": null, "location": {"lat": 19.426744, "lon": -99.193986}, "districtName": "Ampliaci\u00f3n Granada", "name": "237 ANDR\u00c9S BELLO-ELLIOT ", "nearbyStations": [193, 234, 238], "id": 237}, {"addressNumber": "S/N", "districtCode": "1", "altitude": null, "stationType": "BIKE", "address": "238 - Andr\u00e9s Bello-Elliot", "zipCode": null, "location": {"lat": 19.426765, "lon": -99.193752}, "districtName": "Ampliaci\u00f3n Granada", "name": "238 ANDR\u00c9S BELLO-ELLIOT ", "nearbyStations": [193, 234, 237], "id": 238}, {"addressNumber": "S/N", "districtCode": "1", "altitude": null, "stationType": "BIKE", "address": "234 - Tres Picos-Arqu\u00edmides", "zipCode": null, "location": {"lat": 19.42783, "lon": -99.191539}, "districtName": "Ampliaci\u00f3n Granada", "name": "234 TRES PICOS-ARQU\u00cdMIDES ", "nearbyStations": [192, 193, 231], "id": 234}, {"addressNumber": "S/N", "districtCode": "1", "altitude": null, "stationType": "BIKE", "address": "243 - Miguel de Cervantes Saavedra-Lago Filt", "zipCode": "11510", "location": {"lat": 19.440839, "lon": -99.196712}, "districtName": "Ampliaci\u00f3n Granada", "name": "243 MIGUEL DE CERVANTES SAAVEDRA-LAGO FILT ", "nearbyStations": [199, 242, 244], "id": 243}, {"addressNumber": "S/N", "districtCode": "1", "altitude": null, "stationType": "BIKE", "address": "248 - Shakespeare-Lafayette", "zipCode": "11510", "location": {"lat": 19.43175, "lon": -99.177399}, "districtName": "Ampliaci\u00f3n Granada", "name": "248 SHAKESPEARE-LAFAYETTE ", "nearbyStations": [246, 247, 249], "id": 248}, {"addressNumber": "S/N", "districtCode": "1", "altitude": null, "stationType": "BIKE,TPV", "address": "250 - Darwin-Mariano Escobedo", "zipCode": "11510", "location": {"lat": 19.429057, "lon": -99.17966}, "districtName": "Ampliaci\u00f3n Granada", "name": "250 DARWIN-MARIANO ESCOBEDO ", "nearbyStations": [239, 249, 252], "id": 250}, {"addressNumber": "S/N", "districtCode": "1", "altitude": null, "stationType": "BIKE,TPV", "address": "253 - Dante-Tolstoi", "zipCode": "11510", "location": {"lat": 19.425835, "lon": -99.177924}, "districtName": "Ampliaci\u00f3n Granada", "name": "253 DANTE-TOLSTOI ", "nearbyStations": [195, 252, 261], "id": 253}, {"addressNumber": "S/N", "districtCode": "1", "altitude": null, "stationType": "BIKE", "address": "255-Jose Rosas Moreno-Guillermo Prieto", "zipCode": null, "location": {"lat": 19.437159, "lon": -99.161808}, "districtName": "Ampliaci\u00f3n Granada", "name": "255 JOSE ROSAS MORENO-GUILLERMO PRIETO ", "nearbyStations": [160, 183, 257], "id": 255}, {"addressNumber": "S/N", "districtCode": "1", "altitude": null, "stationType": "BIKE", "address": "259 - T\u00f3mas Alva Edison-Ponciano Arriaga", "zipCode": null, "location": {"lat": 19.43757, "lon": -99.15468}, "districtName": "Ampliaci\u00f3n Granada", "name": "259 T\u00d3MAS ALVA EDISON-PONCIANO ARRIAGA ", "nearbyStations": [256], "id": 259}, {"addressNumber": "S/N", "districtCode": "1", "altitude": null, "stationType": "BIKE", "address": "261 Paseo de la Reforma-R\u00edo R\u00f3dano", "zipCode": null, "location": {"lat": 19.423704, "lon": -99.175196}, "districtName": "Ampliaci\u00f3n Granada", "name": "261 PASEO DE LA REFORMA-R\u00cdO R\u00d3DANO ", "nearbyStations": [195, 252, 253], "id": 261}, {"addressNumber": "S/N", "districtCode": "1", "altitude": null, "stationType": "BIKE", "address": "264 - H. Ferrocarrileros - Jes\u00fas Garcia ", "zipCode": null, "location": {"lat": 19.440985, "lon": -99.152935}, "districtName": "Ampliaci\u00f3n Granada", "name": "264 H\u00c9ROES FERROCARRILEROS-AV. CENTRAL", "nearbyStations": [265, 266, 268], "id": 264}, {"addressNumber": "S/N", "districtCode": "1", "altitude": null, "stationType": "BIKE,TPV", "address": "265 - Jes\u00fas Garcia-H\u00e9roes Ferrocarrileros", "zipCode": null, "location": {"lat": 19.440839, "lon": -99.152265}, "districtName": "Ampliaci\u00f3n Granada", "name": "265 H\u00c9ROES FERROCARRILEROS-JES\u00daS GARCIA", "nearbyStations": [264, 275], "id": 265}, {"addressNumber": "S/N", "districtCode": "1", "altitude": null, "stationType": "BIKE", "address": "273 Luis Donaldo Colosio - Av. Jesus Garcia", "zipCode": null, "location": {"lat": 19.442707, "lon": -99.152956}, "districtName": "Ampliaci\u00f3n Granada", "name": "273 LUIS DONALDO COLOSIO-AV. CENTRAL", "nearbyStations": [176, 268, 274], "id": 273}, {"addressNumber": "S/N", "districtCode": "1", "altitude": null, "stationType": "BIKE", "address": "277 - Ampliaci\u00f3n Tonal\u00e1-Obrero Mundial", "zipCode": "3020", "location": {"lat": 19.401807, "lon": -99.15909}, "districtName": "Ampliaci\u00f3n Granada", "name": "277 AMPLIACI\u00d3N TONAL\u00c1-OBRERO MUNDIAL", "nearbyStations": [165, 276, 280], "id": 277}, {"addressNumber": "S/N", "districtCode": "1", "altitude": null, "stationType": "BIKE", "address": "278 - Mier Y Pesado-Obrero Mundial", "zipCode": "3103", "location": {"lat": 19.40071, "lon": -99.163831}, "districtName": "Ampliaci\u00f3n Granada", "name": "278 MIER Y PESADO-OBRERO MUNDIAL", "nearbyStations": [164, 279, 282], "id": 278}, {"addressNumber": "S/N", "districtCode": "1", "altitude": null, "stationType": "BIKE", "address": "271 Av. Jes\u00fas Garc\u00eda - J. Meneses", "zipCode": null, "location": {"lat": 19.442689, "lon": -99.152465}, "districtName": "Ampliaci\u00f3n Granada", "name": "271 AV. CENTRAL-J. MENESES ", "nearbyStations": [266, 267, 272], "id": 271}, {"addressNumber": "S/N", "districtCode": "1", "altitude": null, "stationType": "BIKE", "address": "283 - Av. Coyoac\u00e1n-Rafael Donde", "zipCode": "3103", "location": {"lat": 19.39827, "lon": -99.167383}, "districtName": "Ampliaci\u00f3n Granada", "name": "283 AV. COYOAC\u00c1N-RAFAEL DONDE", "nearbyStations": [279, 292, 293], "id": 283}, {"addressNumber": "S/N", "districtCode": "1", "altitude": null, "stationType": "BIKE", "address": "288 - 11 De Abril-Avenida 2", "zipCode": "3800", "location": {"lat": 19.396333, "lon": -99.183575}, "districtName": "Ampliaci\u00f3n Granada", "name": "288 11 DE ABRIL-AVENIDA 2", "nearbyStations": [287, 310, 311], "id": 288}, {"addressNumber": "S/N", "districtCode": "1", "altitude": null, "stationType": "BIKE,TPV", "address": "305 - Avenida Del Parque-Arizona", "zipCode": "3810", "location": {"lat": 19.394693, "lon": -99.175531}, "districtName": "Ampliaci\u00f3n Granada", "name": "305 AVENIDA DEL PARQUE-ARIZONA", "nearbyStations": [304, 306, 307], "id": 305}, {"addressNumber": "S/N", "districtCode": "1", "altitude": null, "stationType": "BIKE", "address": "308 - Nueva York-Arizona", "zipCode": "3810", "location": {"lat": 19.393594, "lon": -99.178072}, "districtName": "Ampliaci\u00f3n Granada", "name": "308 NUEVA YORK-ARIZONA", "nearbyStations": [306, 307, 309], "id": 308}, {"addressNumber": "S/N", "districtCode": "1", "altitude": null, "stationType": "BIKE", "address": "310 - Calle 1-Av. Patriotismo", "zipCode": "3800", "location": {"lat": 19.395319, "lon": -99.181733}, "districtName": "Ampliaci\u00f3n Granada", "name": "310 CALLE 1-AV. PATRIOTISMO", "nearbyStations": [309, 311, 312], "id": 310}, {"addressNumber": "S/N", "districtCode": "1", "altitude": null, "stationType": "BIKE", "address": "311 - Calle 5-Avenida Revoluci\u00f3n", "zipCode": "3800", "location": {"lat": 19.393665, "lon": -99.185391}, "districtName": "Ampliaci\u00f3n Granada", "name": "311 CALLE 5-AVENIDA REVOLUCI\u00d3N", "nearbyStations": [310, 312, 328], "id": 311}, {"addressNumber": "S/N", "districtCode": "1", "altitude": null, "stationType": "BIKE", "address": "313 - Pennsylvania-Oklahoma", "zipCode": "3810", "location": {"lat": 19.391431, "lon": -99.178989}, "districtName": "Ampliaci\u00f3n Granada", "name": "313 PENNSYLVANIA-OKLAHOMA", "nearbyStations": [308, 309, 314], "id": 313}, {"addressNumber": "S/N", "districtCode": "1", "altitude": null, "stationType": "BIKE", "address": "321 - Torres Adalid-Anax\u00e1goras", "zipCode": "3020", "location": {"lat": 19.389477, "lon": -99.157513}, "districtName": "Ampliaci\u00f3n Granada", "name": "321 TORRES ADALID-ANAX\u00c1GORAS", "nearbyStations": [320, 322, 340], "id": 321}, {"addressNumber": "S/N", "districtCode": "1", "altitude": null, "stationType": "BIKE", "address": "322 - Heriberto Fr\u00edas-Concepci\u00f3n Beistegui", "zipCode": "3020", "location": {"lat": 19.388528, "lon": -99.160616}, "districtName": "Ampliaci\u00f3n Granada", "name": "322 HERIBERTO FR\u00cdAS-CONCEPCI\u00d3N BEISTEGUI", "nearbyStations": [321, 323, 339], "id": 322}, {"addressNumber": "S/N", "districtCode": "1", "altitude": null, "stationType": "BIKE", "address": "325 - Providencia -Avenida Del Valle", "zipCode": "3100", "location": {"lat": 19.3881779, "lon": -99.1696894}, "districtName": "Ampliaci\u00f3n Granada", "name": "325 PROVIDENCIA -AVENIDA DEL VALLE", "nearbyStations": [316, 335, 336], "id": 325}, {"addressNumber": "S/N", "districtCode": "2", "altitude": null, "stationType": "BIKE", "address": "251 - Goethe-Darwin", "zipCode": "11510", "location": {"lat": 19.429261, "lon": -99.17538}, "districtName": "Anzures", "name": "251 GOETHE-DARWIN ", "nearbyStations": [248, 249, 252], "id": 251}, {"addressNumber": "S/N", "districtCode": "2", "altitude": null, "stationType": "BIKE", "address": "252 - V\u00edctor Hugo-Shakespeare", "zipCode": "11510", "location": {"lat": 19.427575, "lon": -99.17702}, "districtName": "Anzures", "name": "252 VICTOR HUGO-SHAKESPEARE ", "nearbyStations": [249, 251, 253], "id": 252}, {"addressNumber": "S/N", "districtCode": "2", "altitude": null, "stationType": "BIKE", "address": "249 - Shakespeare-Darwin", "zipCode": "11510", "location": {"lat": 19.429877, "lon": -99.177569}, "districtName": "Anzures", "name": "249 SHAKESPEARE-DARWIN ", "nearbyStations": [248, 250, 251], "id": 249}, {"addressNumber": "S/N", "districtCode": "2", "altitude": null, "stationType": "BIKE", "address": "246 - Leibnitz-Thiers", "zipCode": "11510", "location": {"lat": 19.434147, "lon": -99.179835}, "districtName": "Anzures", "name": "246 LEIBNITZ-THIERS", "nearbyStations": [207, 247, 248], "id": 246}, {"addressNumber": "S/N", "districtCode": "2", "altitude": null, "stationType": "BIKE", "address": "247 - Herschel-Rousseau", "zipCode": "11510", "location": {"lat": 19.432102, "lon": -99.180565}, "districtName": "Anzures", "name": "247 HERSCHEL-ROUSSEAU ", "nearbyStations": [226, 239, 246], "id": 247}, {"addressNumber": "S/N", "districtCode": "2", "altitude": null, "stationType": "BIKE", "address": "452 LEIBNITZ-AV. EJERCITO NACIONAL", "zipCode": null, "location": {"lat": 19.435031, "lon": -99.179838}, "districtName": "Anzures", "name": "452 LEIBNITZ-AV. EJERCITO NACIONAL", "nearbyStations": [452], "id": 452}, {"addressNumber": "S/N", "districtCode": "ACA", "altitude": null, "stationType": "BIKE", "address": "439 - Amores-Avenida Coyoac\u00e1n", "zipCode": "3240", "location": {"lat": 19.36218889, "lon": -99.17246667}, "districtName": "Acacias", "name": "439 AMORES-AVENIDA COYOAC\u00c1N", "nearbyStations": [433, 434, 438], "id": 439}, {"addressNumber": "S/N", "districtCode": "ACA", "altitude": null, "stationType": "BIKE", "address": "436 - Rodriguez Saro-Bufallo", "zipCode": "3240", "location": {"lat": 19.366217, "lon": -99.177819}, "districtName": "Acacias", "name": "436 RODRIGUEZ SARO-BUFALLO", "nearbyStations": [422, 423, 437], "id": 436}, {"addressNumber": "S/N", "districtCode": "ACA", "altitude": null, "stationType": "BIKE", "address": "423 - Moras-Jos\u00e9 Mar\u00eda Rico (Eje 8)", "zipCode": "3240", "location": {"lat": 19.367631, "lon": -99.175342}, "districtName": "Acacias", "name": "423 MORAS-JOS\u00c9 MAR\u00cdA RICO (EJE 8)", "nearbyStations": [422, 436, 437], "id": 423}, {"addressNumber": "S/N", "districtCode": "ACT", "altitude": null, "stationType": "BIKE", "address": "435 - Rodriguez Saro-Avenida Coyoac\u00e1n", "zipCode": "3230", "location": {"lat": 19.365154, "lon": -99.172906}, "districtName": "Actipan", "name": "435 RODRIGUEZ SARO-AVENIDA COYOAC\u00c1N", "nearbyStations": [433, 434, 438], "id": 435}, {"addressNumber": "S/N", "districtCode": "ACT", "altitude": null, "stationType": "BIKE", "address": "420 - Mar\u00eda Luz Bringas-Oso", "zipCode": "3230", "location": {"lat": 19.369723, "lon": -99.17964}, "districtName": "Actipan", "name": "420 MAR\u00cdA LUZ BRINGAS-OSO", "nearbyStations": [418, 419, 421], "id": 420}, {"addressNumber": "S/N", "districtCode": "ACT", "altitude": null, "stationType": "BIKE", "address": "421 - Mar\u00eda Luz Bringas-Oso", "zipCode": "3230", "location": {"lat": 19.369467, "lon": -99.179401}, "districtName": "Actipan", "name": "421 MAR\u00cdA LUZ BRINGAS-OSO", "nearbyStations": [419, 420, 422], "id": 421}, {"addressNumber": "S/N", "districtCode": "ACT", "altitude": null, "stationType": "BIKE", "address": "422 - Bufalo-Jos\u00e9 Mar\u00eda Rico (Eje 8)", "zipCode": "3230", "location": {"lat": 19.368356, "lon": -99.177487}, "districtName": "Actipan", "name": "422 BUFALO-JOS\u00c9 MAR\u00cdA RICO (EJE 8)", "nearbyStations": [421, 423, 436], "id": 422}, {"addressNumber": "S/N", "districtCode": "AMN", "altitude": null, "stationType": "BIKE", "address": "349 - Augusto Rodin-Avenida San Antonio", "zipCode": "3840", "location": {"lat": 19.385688, "lon": -99.180857}, "districtName": "Ampliaci\u00f3n N\u00e1poles", "name": "349 AUGUSTO RODIN-AVENIDA SAN ANTONIO", "nearbyStations": [332, 348, 350], "id": 349}, {"addressNumber": "S/N", "districtCode": "AMN", "altitude": null, "stationType": "BIKE", "address": "334 - Nuerva York-Av. Insurgentes", "zipCode": "3840", "location": {"lat": 19.386568, "lon": -99.175089}, "districtName": "Ampliaci\u00f3n N\u00e1poles", "name": "334 NUEVA YORK-AV. INSURGENTES", "nearbyStations": [326, 335, 346], "id": 334}, {"addressNumber": "S/N", "districtCode": "AMN", "altitude": null, "stationType": "BIKE", "address": "326 - Eugenia-Nebraska", "zipCode": "3840", "location": {"lat": 19.388978, "lon": -99.174811}, "districtName": "Ampliaci\u00f3n N\u00e1poles", "name": "326 EUGENIA-NEBRASKA", "nearbyStations": [327, 334, 335], "id": 326}, {"addressNumber": "S/N", "districtCode": "BUE", "altitude": null, "stationType": "BIKE,TPV", "address": "266 - Av. Jes\u00fas Garcia -  Carlos J. Meneses", "zipCode": null, "location": {"lat": 19.444031, "lon": -99.152187}, "districtName": "Buenavista", "name": "266 AV. JES\u00daS GARCIA-CARLOS J. MENESES ", "nearbyStations": [267, 268, 269], "id": 266}, {"addressNumber": "S/N", "districtCode": "BUE", "altitude": null, "stationType": "BIKE", "address": "267 - Carlos J. Meneses - Av. jes\u00fas Garc\u00eda", "zipCode": null, "location": {"lat": 19.443735, "lon": -99.152203}, "districtName": "Buenavista", "name": "267 AV. JES\u00dcS GARC\u00cfA-CARLOS J. MENESES", "nearbyStations": [176, 266, 271], "id": 267}, {"addressNumber": "S/N", "districtCode": "BUE", "altitude": null, "stationType": "BIKE", "address": "268 Luis Donaldo Colosio - Av. Jesus Garcia", "zipCode": null, "location": {"lat": 19.442448, "lon": -99.151586}, "districtName": "Buenavista", "name": "268 LUIS DONALDO COLOSIO-AV.JES\u00daS GARC\u00cdA ", "nearbyStations": [176, 269, 273], "id": 268}, {"addressNumber": "S/N", "districtCode": "BUE", "altitude": null, "stationType": "BIKE", "address": "269 Luis Donaldo Colosio - Aldama", "zipCode": null, "location": {"lat": 19.442467, "lon": -99.151658}, "districtName": "Buenavista", "name": "269 LUIS DONALDO COLOSIO-ALDAMA ", "nearbyStations": [176, 268, 273], "id": 269}, {"addressNumber": "S/N", "districtCode": "BUE", "altitude": null, "stationType": "BIKE", "address": "271 Av. Jesus Garcia - J. Meneses", "zipCode": null, "location": {"lat": 19.443467, "lon": -99.152491}, "districtName": "Buenavista", "name": "272 AV. CENTRAL-J. MENESES ", "nearbyStations": [266, 267, 271], "id": 272}, {"addressNumber": "S/N", "districtCode": "BUE", "altitude": null, "stationType": "BIKE", "address": "274 Luis Donaldo Colosio - Av. Insurgentes Norte", "zipCode": null, "location": {"lat": 19.442772, "lon": -99.153289}, "districtName": "Buenavista", "name": "274 LUIS DONALDO COLOSIO-AV INSURGENTES NORTE ", "nearbyStations": [176, 268, 273], "id": 274}, {"addressNumber": "S/N", "districtCode": "BUE", "altitude": null, "stationType": "BIKE", "address": "275 H\u00e9roes Ferrocarrileros - Av. Jes\u00fas Garc\u00eda", "zipCode": null, "location": {"lat": 19.441062, "lon": -99.153164}, "districtName": "Buenavista", "name": "275 H\u00c9ROES FERROCARRILEROS-AV. INSURGENTES NORTE", "nearbyStations": [264, 265], "id": 275}, {"addressNumber": "S/N", "districtCode": "BUE", "altitude": null, "stationType": "BIKE", "address": "176-LUIS DONALDO COLOSIO - AV. JES\u00dcS GARC\u00cfA", "zipCode": null, "location": {"lat": 19.442689, "lon": -99.152286}, "districtName": "Buenavista", "name": "176 AV. JES\u00dcS GARC\u00cfA-LUIS DONALDO COLOSIO", "nearbyStations": [266, 267, 272], "id": 176}, {"addressNumber": "S/N", "districtCode": "CDD", "altitude": null, "stationType": "BIKE", "address": "348 - Indiana-Avenida San Antonio", "zipCode": "3710", "location": {"lat": 19.385365, "lon": -99.178216}, "districtName": "Ciudad de los Deportes", "name": "348 INDIANA-AVENIDA SAN ANTONIO", "nearbyStations": [347, 349, 350], "id": 348}, {"addressNumber": "S/N", "districtCode": "CDD", "altitude": null, "stationType": "BIKE", "address": "362 - Augusto Rodin-Alberto Balderas", "zipCode": "3710", "location": {"lat": 19.382207, "lon": -99.181043}, "districtName": "Ciudad de los Deportes", "name": "362 AUGUSTO RODIN-ALBERTO BALDERAS", "nearbyStations": [367, 368], "id": 362}, {"addressNumber": "S/N", "districtCode": "CDD", "altitude": null, "stationType": "BIKE", "address": "363 - Holbein-Paulo Ucello", "zipCode": "3710", "location": {"lat": 19.380813, "lon": -99.183851}, "districtName": "Ciudad de los Deportes", "name": "363 HOLBEIN-PAULO UCELLO", "nearbyStations": [362, 365, 367], "id": 363}, {"addressNumber": "S/N", "districtCode": "CDD", "altitude": null, "stationType": "BIKE,TPV", "address": "353 - Carolina-Holbein", "zipCode": "3710", "location": {"lat": 19.382168, "lon": -99.178808}, "districtName": "Ciudad de los Deportes", "name": "353 CAROLINA-HOLBEIN", "nearbyStations": [354, 361, 362], "id": 353}, {"addressNumber": "S/N", "districtCode": "CEN", "altitude": null, "stationType": "BIKE,TPV", "address": "262 - Republica de Cuba-Republica de Brasil", "zipCode": null, "location": {"lat": 19.43693, "lon": -99.13395}, "districtName": "Centro", "name": "262 REPUBLICA DE CUBA-REPUBLICA DE BRASIL ", "nearbyStations": [91, 92, 93], "id": 262}, {"addressNumber": "S/N", "districtCode": "CEN", "altitude": null, "stationType": "BIKE", "address": "260 - Av. Ju\u00e1rez-Balderas", "zipCode": null, "location": {"lat": 19.435354, "lon": -99.147742}, "districtName": "Centro", "name": "260 AV JUAREZ-BALDERAS ", "nearbyStations": [29, 41, 43], "id": 260}, {"addressNumber": "S/N", "districtCode": "CEN", "altitude": null, "stationType": "BIKE", "address": "105 - San Jer\u00f3nimo-5 de Febrero", "zipCode": "06500", "location": {"lat": 19.426755, "lon": -99.135014}, "districtName": "Centro", "name": "105 SAN JERONIMO-5 DE FEBRERO", "nearbyStations": [101, 104, 106], "id": 105}, {"addressNumber": "S/N", "districtCode": "CEN", "altitude": null, "stationType": "BIKE", "address": "106 - San Jer\u00f3nimo-Jos\u00e9 Mar\u00eda Pino Suarez", "zipCode": "06500", "location": {"lat": 19.42649, "lon": -99.133537}, "districtName": "Centro", "name": "106 SAN JERONIMO-JOSE MARIA PINO SUAREZ", "nearbyStations": [100, 101, 105], "id": 106}, {"addressNumber": "S/N", "districtCode": "CEN", "altitude": null, "stationType": "BIKE", "address": "107 - Tolsa-Balderas", "zipCode": "06500", "location": {"lat": 19.427329, "lon": -99.149971}, "districtName": "Centro", "name": "107 TOLSA-BALDERAS", "nearbyStations": [98, 108, 122], "id": 107}, {"addressNumber": "S/N", "districtCode": "CEN", "altitude": null, "stationType": "BIKE,TPV", "address": "108 - Tolsa-Balderas", "zipCode": "06500", "location": {"lat": 19.427305, "lon": -99.149533}, "districtName": "Centro", "name": "108 TOLSA-BALDERAS", "nearbyStations": [98, 107, 122], "id": 108}, {"addressNumber": "S/N", "districtCode": "CEN", "altitude": null, "stationType": "BIKE", "address": "109 - Nezahualc\u00f3yotl-Isabel la Cat\u00f3lica", "zipCode": "06500", "location": {"lat": 19.425311, "lon": -99.137421}, "districtName": "Centro", "name": "109 NEZAHUALCOYOTL-ISABEL LA CATOLICA", "nearbyStations": [104, 105, 106], "id": 109}, {"addressNumber": "S/N", "districtCode": "CEN", "altitude": null, "stationType": "BIKE", "address": "065 - Marconi - Tacuba", "zipCode": "06170", "location": {"lat": 19.436142, "lon": -99.139906}, "districtName": "Centro", "name": "65 MARCONI-TACUBA", "nearbyStations": [52, 55], "id": 65}, {"addressNumber": "S/N", "districtCode": "CEN", "altitude": null, "stationType": "BIKE,TPV", "address": "087 - Gante - Venustiano Carranza", "zipCode": null, "location": {"lat": 19.43182, "lon": -99.13974}, "districtName": "Centro", "name": "87 GANTE-VENUSTIANO CARRANZA", "nearbyStations": [88, 95, 96], "id": 87}, {"addressNumber": "S/N", "districtCode": "CEN", "altitude": null, "stationType": "BIKE,TPV", "address": "089 - Rep\u00fablica de Guatemala - Monte de Piedad", "zipCode": null, "location": {"lat": 19.434946, "lon": -99.133989}, "districtName": "Centro", "name": "89 REPUBLICA DE GUATEMALA-MONTE DE PIEDAD", "nearbyStations": [88, 90], "id": 89}, {"addressNumber": "S/N", "districtCode": "CEN", "altitude": null, "stationType": "BIKE,TPV", "address": "090 - Jos\u00e9 Mar\u00eda Pino Su\u00e1rez - Corregidora", "zipCode": null, "location": {"lat": 19.431698, "lon": -99.132446}, "districtName": "Centro", "name": "90 JOSE MARIA PINO SUAREZ-CORREGIDORA", "nearbyStations": [88, 89], "id": 90}, {"addressNumber": "S/N", "districtCode": "CEN", "altitude": null, "stationType": "BIKE", "address": "091 - Republica de Cuba-Allende", "zipCode": "06500", "location": {"lat": 19.4374, "lon": -99.137571}, "districtName": "Centro", "name": "91 REPUBLICA DE CUBA-ALLENDE", "nearbyStations": [90, 92, 93], "id": 91}, {"addressNumber": "S/N", "districtCode": "CEN", "altitude": null, "stationType": "BIKE", "address": "092 - San Ildefonso-Rep\u00fablica de Argentina", "zipCode": "06500", "location": {"lat": 19.436531, "lon": -99.131497}, "districtName": "Centro", "name": "92 SAN ILDEFONSO-REPUBLICA DE ARGENTINA", "nearbyStations": [90, 91, 93], "id": 92}, {"addressNumber": "S/N", "districtCode": "CEN", "altitude": null, "stationType": "BIKE", "address": "093 - Palma Norte-Republica de Cuba", "zipCode": "06500", "location": {"lat": 19.436741, "lon": -99.134811}, "districtName": "Centro", "name": "93 PALMA NORTE-REPUBLICA DE CUBA", "nearbyStations": [90, 91, 92], "id": 93}, {"addressNumber": "S/N", "districtCode": "CEN", "altitude": null, "stationType": "BIKE", "address": "94 - Lic. Verdad-Moneda", "zipCode": null, "location": {"lat": 19.433766, "lon": -99.130918}, "districtName": "Centro", "name": "94 LIC. VERDAD-MONEDA", "nearbyStations": [94], "id": 94}, {"addressNumber": "S/N", "districtCode": "CEN", "altitude": null, "stationType": "BIKE", "address": "095 - 20 de Noviembre-Venustiano Carranza", "zipCode": "06500", "location": {"lat": 19.430722, "lon": -99.133698}, "districtName": "Centro", "name": "95 20 DE NOVIEMBRE-VENUSTIANO CARRANZA", "nearbyStations": [93, 96, 97], "id": 95}, {"addressNumber": "S/N", "districtCode": "CEN", "altitude": null, "stationType": "BIKE", "address": "096 - L\u00f3pez-Ayuntamiento", "zipCode": "06500", "location": {"lat": 19.430625, "lon": -99.14248}, "districtName": "Centro", "name": "96 LOPEZ-AYUNTAMIENTO", "nearbyStations": [98], "id": 96}, {"addressNumber": "S/N", "districtCode": "CEN", "altitude": null, "stationType": "BIKE,TPV", "address": "097 - Republica de Salvador-Pino Suarez", "zipCode": "06500", "location": {"lat": 19.429189, "lon": -99.132759}, "districtName": "Centro", "name": "97 REPUBLICA DE SALVADOR-PINO SUAREZ", "nearbyStations": [90, 100], "id": 97}, {"addressNumber": "S/N", "districtCode": "CEN", "altitude": null, "stationType": "BIKE", "address": "098 - Emilio Dond\u00e9-Av. Balderas", "zipCode": "06500", "location": {"lat": 19.430267, "lon": -99.14861}, "districtName": "Centro", "name": "98 EMILIO DONDE-AV. BALDERAS", "nearbyStations": [107, 108], "id": 98}, {"addressNumber": "S/N", "districtCode": "CEN", "altitude": null, "stationType": "BIKE", "address": "99 - Ernesto Pugibet-Luis Moya", "zipCode": null, "location": {"lat": 19.42995, "lon": -99.14591}, "districtName": "Centro", "name": "99 ERNESTO PUGIBET-LUIS MOYA", "nearbyStations": [96, 98, 122], "id": 99}, {"addressNumber": "S/N", "districtCode": "CEN", "altitude": null, "stationType": "BIKE", "address": "100 - 20 de Noviembre-Mesones", "zipCode": "06500", "location": {"lat": 19.428485, "lon": -99.1338}, "districtName": "Centro", "name": "100 20 DE NOVIEMBRE-MESONES", "nearbyStations": [95, 97, 101], "id": 100}, {"addressNumber": "S/N", "districtCode": "CEN", "altitude": null, "stationType": "BIKE", "address": "1ER. CALLEJ\u00d3N DE MESONES - MESONES", "zipCode": null, "location": {"lat": 19.428366, "lon": -99.135895}, "districtName": "Centro", "name": "101 1ER. CALLEJ\u00d3N DE MESONES-MESONES", "nearbyStations": [100, 104, 105], "id": 101}, {"addressNumber": "S/N", "districtCode": "CEN", "altitude": null, "stationType": "BIKE,TPV", "address": "082 - Independencia - Marroqu\u00ed", "zipCode": "06100", "location": {"lat": 19.433115, "lon": -99.143686}, "districtName": "Centro", "name": "82 INDEPENDENCIA-MARROQUI", "nearbyStations": [43, 48], "id": 82}, {"addressNumber": "S/N", "districtCode": "CEN", "altitude": null, "stationType": "BIKE,TPV", "address": "052 - Dolores - Ju\u00e1rez", "zipCode": "06140", "location": {"lat": 19.436236, "lon": -99.142039}, "districtName": "Centro", "name": "52 HIDALGO-TRUJANO", "nearbyStations": [43], "id": 52}, {"addressNumber": "S/N", "districtCode": "CEN", "altitude": null, "stationType": "BIKE", "address": "048 - Independencia - Azueta", "zipCode": "06700", "location": {"lat": 19.433686, "lon": -99.146557}, "districtName": "Centro", "name": "48 INDEPENDENCIA-AZUETA", "nearbyStations": [43, 82], "id": 48}, {"addressNumber": "S/N", "districtCode": "CEN", "altitude": null, "stationType": "BIKE,TPV", "address": "043 - Revillagigedo - Ju\u00e1rez", "zipCode": "06700", "location": {"lat": 19.435228, "lon": -99.146063}, "districtName": "Centro", "name": "43 JUAREZ-REVILLAGIGEDO", "nearbyStations": [52, 82], "id": 43}, {"addressNumber": "S/N", "districtCode": "CEN", "altitude": null, "stationType": "BIKE,TPV", "address": "029 - Reforma - Bucareli", "zipCode": "06500", "location": {"lat": 19.434913, "lon": -99.149939}, "districtName": "Centro", "name": "29 REFORMA-BUCARELI", "nearbyStations": [41], "id": 29}, {"addressNumber": "S/N", "districtCode": "CHA", "altitude": null, "stationType": "BIKE,TPV", "address": "192 - Rub\u00e9n Dar\u00edo-Reforma", "zipCode": "11510", "location": {"lat": 19.42592, "lon": -99.190755}, "districtName": "Bosque de Chapultepec", "name": "192 RUBEN DARIO-REFORMA", "nearbyStations": [193, 234, 238], "id": 192}, {"addressNumber": "S/N", "districtCode": "CHA", "altitude": null, "stationType": "BIKE", "address": "193 - Rub\u00e9n Dar\u00edo.Reforma", "zipCode": "11510", "location": {"lat": 19.425907, "lon": -99.190733}, "districtName": "Bosque de Chapultepec", "name": "193 RUBEN DARIO-REFORMA", "nearbyStations": [192, 234, 238], "id": 193}, {"addressNumber": "S/N", "districtCode": "CHA", "altitude": null, "stationType": "BIKE,TPV", "address": "194 - Av. Paseo de la Reforma-Circuito Mahatma Gandhi", "zipCode": "11510", "location": {"lat": 19.424282, "lon": -99.180334}, "districtName": "Bosque de Chapultepec", "name": "194 CTO MAHATMA GANDHI-AV. PASEO DE LA REFORMA", "nearbyStations": [195, 253, 261], "id": 194}, {"addressNumber": "S/N", "districtCode": "CHA", "altitude": null, "stationType": "BIKE,TPV", "address": "195 - Circuito Mahatma Gandhi-Av. Paseo de la Reforma", "zipCode": null, "location": {"lat": 19.424926, "lon": -99.185147}, "districtName": "Bosque de Chapultepec", "name": "195 AV. PASEO DE LA REFORMA-CTO MAHATMA GANDHI", "nearbyStations": [194, 253, 261], "id": 195}, {"addressNumber": "S/N", "districtCode": "CON", "altitude": null, "stationType": "BIKE", "address": "258 - Circuito Interior-Juan Escutia", "zipCode": null, "location": {"lat": 19.4167, "lon": -99.1791}, "districtName": "Condesa", "name": "258 CIRCUITO INTERIOR-JUAN ESCUTIA ", "nearbyStations": [36, 49, 53], "id": 258}, {"addressNumber": "S/N", "districtCode": "CON", "altitude": null, "stationType": "BIKE", "address": "049 - Mazatl\u00e1n - Juan de la Barrera", "zipCode": "06140", "location": {"lat": 19.416712, "lon": -99.175704}, "districtName": "Condesa", "name": "49 MAZATLAN-JUAN DE LA BARRERA", "nearbyStations": [41, 44, 50, 60], "id": 49}, {"addressNumber": "S/N", "districtCode": "CON", "altitude": null, "stationType": "BIKE", "address": "050 - Cuernavaca - Veracruz", "zipCode": "06140", "location": {"lat": 19.416938, "lon": -99.173648}, "districtName": "Condesa", "name": "50 CUERNAVACA-VERACRUZ", "nearbyStations": [44, 49, 57, 58], "id": 50}, {"addressNumber": "S/N", "districtCode": "CON", "altitude": null, "stationType": "BIKE", "address": "053 - Fernando Montes de Oca - Tula", "zipCode": "06140", "location": {"lat": 19.414773, "lon": -99.178433}, "districtName": "Condesa", "name": "53 FERNANDO MONTES DE OCA-TULA", "nearbyStations": [52, 60, 65, 66], "id": 53}, {"addressNumber": "S/N", "districtCode": "CON", "altitude": null, "stationType": "BIKE,TPV", "address": "054 - Parque Espa\u00f1a - Sonora", "zipCode": "06700", "location": {"lat": 19.416215, "lon": -99.170825}, "districtName": "Condesa", "name": "54 PARQUE ESPA\u00d1A-SONORA", "nearbyStations": [50, 51, 58, 63], "id": 54}, {"addressNumber": "S/N", "districtCode": "CON", "altitude": null, "stationType": "BIKE", "address": "058 - Parque Espa\u00f1a - Juan de la Barrera", "zipCode": "06140", "location": {"lat": 19.41568, "lon": -99.171793}, "districtName": "Condesa", "name": "58 PARQUE ESPA\u00d1A-JUAN DE LA BARRERA", "nearbyStations": [50, 54, 61, 63], "id": 58}, {"addressNumber": "S/N", "districtCode": "CON", "altitude": null, "stationType": "BIKE", "address": "067 - Vicente Su\u00e1rez - Michoacan", "zipCode": "06170", "location": {"lat": 19.411797, "lon": -99.17588}, "districtName": "Condesa", "name": "67 VICENTE SUAREZ-MICHOACAN", "nearbyStations": [62, 66, 68], "id": 67}, {"addressNumber": "S/N", "districtCode": "CON", "altitude": null, "stationType": "BIKE,TPV", "address": "068 - Tamaulipas - Michoacan", "zipCode": "06170", "location": {"lat": 19.411556, "lon": -99.17406}, "districtName": "Condesa", "name": "68 TAMAULIPAS-MICHOACAN", "nearbyStations": [67, 74], "id": 68}, {"addressNumber": "S/N", "districtCode": "CON", "altitude": null, "stationType": "BIKE", "address": "060 - Mazatl\u00e1n - Fernando Montes de Oca", "zipCode": "06140", "location": {"lat": 19.414191, "lon": -99.177123}, "districtName": "Condesa", "name": "60 MAZATLAN-FERNANDO MONTES DE OCA", "nearbyStations": [23, 52, 62, 66], "id": 60}, {"addressNumber": "S/N", "districtCode": "CON", "altitude": null, "stationType": "BIKE", "address": "062 - Fernando Montes de Oca - Amatlan", "zipCode": "06140", "location": {"lat": 19.413322, "lon": -99.175202}, "districtName": "Condesa", "name": "62 FERNANDO MONTES DE OCA-AMATLAN", "nearbyStations": [67, 74], "id": 62}, {"addressNumber": "S/N", "districtCode": "CUA", "altitude": null, "stationType": "BIKE", "address": "011 - R\u00edo Amazonas - Rio Lerma", "zipCode": "06500", "location": {"lat": 19.430992, "lon": -99.163593}, "districtName": "Cuauht\u00e9moc", "name": "11 RIO AMAZONAS-RIO LERMA", "nearbyStations": [3, 12, 19], "id": 11}, {"addressNumber": "S/N", "districtCode": "CUA", "altitude": null, "stationType": "BIKE", "address": "020 - Reforma- Rio Tamesis", "zipCode": "06500", "location": {"lat": 19.430964, "lon": -99.160206}, "districtName": "Cuauht\u00e9moc", "name": "20 REFORMA-RIO TAMESIS", "nearbyStations": [12, 19, 27], "id": 20}, {"addressNumber": "S/N", "districtCode": "CUA", "altitude": null, "stationType": "BIKE,TPV", "address": "018 - Reforma - Rio Sena", "zipCode": "06500", "location": {"lat": 19.42836, "lon": -99.165543}, "districtName": "Cuauht\u00e9moc", "name": "18 REFORMA-RIO SENA", "nearbyStations": [17, 25], "id": 18}, {"addressNumber": "S/N", "districtCode": "CUA", "altitude": null, "stationType": "BIKE", "address": "014 - Reforma - Rio de Plata", "zipCode": "06500", "location": {"lat": 19.424768, "lon": -99.173261}, "districtName": "Cuauht\u00e9moc", "name": "14 REFORMA-RIO DE PLATA", "nearbyStations": [13, 21, 22, 28], "id": 14}, {"addressNumber": "S/N", "districtCode": "CUA", "altitude": null, "stationType": "BIKE,TPV", "address": "015 - Reforma - Rio Mississippi", "zipCode": "06500", "location": {"lat": 19.425477, "lon": -99.171567}, "districtName": "Cuauht\u00e9moc", "name": "15 REFORMA-RIO MISSISSIPPI", "nearbyStations": [14, 16, 22, 23], "id": 15}, {"addressNumber": "S/N", "districtCode": "CUA", "altitude": null, "stationType": "BIKE", "address": "004 - R\u00edo Nilo - R\u00edo Panuco", "zipCode": "06500", "location": {"lat": 19.428309, "lon": -99.171713}, "districtName": "Cuauht\u00e9moc", "name": "4 RIO NILO-RIO PANUCO", "nearbyStations": [5, 8, 9, 10], "id": 4}, {"addressNumber": "S/N", "districtCode": "CUA", "altitude": null, "stationType": "BIKE", "address": "005 - R\u00edo P\u00e1nuco R\u00edo Tiber", "zipCode": "06500", "location": {"lat": 19.42972, "lon": -99.169363}, "districtName": "Cuauht\u00e9moc", "name": "5 RIO PANUCO-RIO TIBER", "nearbyStations": [2, 4, 9, 10], "id": 5}, {"addressNumber": "S/N", "districtCode": "CUA", "altitude": null, "stationType": "BIKE", "address": "006 - R\u00edo P\u00e1nuco - R\u00edo Sena", "zipCode": "06500", "location": {"lat": 19.430922, "lon": -99.166959}, "districtName": "Cuauht\u00e9moc", "name": "6 RIO PANUCO-RIO SENA", "nearbyStations": [1, 3, 5, 10], "id": 6}, {"addressNumber": "S/N", "districtCode": "CUA", "altitude": null, "stationType": "BIKE", "address": "007 - R\u00edo Elba - R\u00edo Lerma", "zipCode": "06500", "location": {"lat": 19.425468, "lon": -99.175166}, "districtName": "Cuauht\u00e9moc", "name": "7 RIO ELBA-RIO LERMA", "nearbyStations": [13, 14, 21, 28], "id": 7}, {"addressNumber": "S/N", "districtCode": "CUA", "altitude": null, "stationType": "BIKE,TPV", "address": "001 - R\u00edo Balsas-R\u00edo Sena", "zipCode": "06500", "location": {"lat": 19.433296, "lon": -99.168051}, "districtName": "Cuauht\u00e9moc", "name": "1 RIO BALSAS-RIO SENA", "nearbyStations": [2, 3, 85], "id": 1}, {"addressNumber": "S/N", "districtCode": "CUA", "altitude": null, "stationType": "BIKE", "address": "002 - R\u00edo Guadalquivir - R\u00edo Balsas", "zipCode": "06500", "location": {"lat": 19.431386, "lon": -99.171695}, "districtName": "Cuauht\u00e9moc", "name": "2 RIO GUADALQUIVIR-RIO BALSAS", "nearbyStations": [1, 5], "id": 2}, {"addressNumber": "S/N", "districtCode": "CUA", "altitude": null, "stationType": "BIKE", "address": "009 - R\u00edo Guadalquivir - R\u00edo Lerma", "zipCode": "06500", "location": {"lat": 19.428009, "lon": -99.169918}, "districtName": "Cuauht\u00e9moc", "name": "9 RIO GUADALQUIVIR-RIO LERMA", "nearbyStations": [4, 5, 8, 16], "id": 9}, {"addressNumber": "S/N", "districtCode": "CUA", "altitude": null, "stationType": "BIKE,TPV", "address": "104 - San Jer\u00f3nimo-Isabel la Cat\u00f3lica", "zipCode": "06500", "location": {"lat": 19.427059, "lon": -99.137116}, "districtName": "Cuauht\u00e9moc", "name": "104 SAN JERONIMO-ISABEL LA CATOLICA", "nearbyStations": [101, 105, 109], "id": 104}, {"addressNumber": "S/N", "districtCode": "DOC", "altitude": null, "stationType": "BIKE", "address": "124 - Claudio Bernard-Dr. Liceaga", "zipCode": "06500", "location": {"lat": 19.422392, "lon": -99.150358}, "districtName": "Doctores", "name": "124 CLAUDIO BERNARD-DR. LICEAGA", "nearbyStations": [123, 133], "id": 124}, {"addressNumber": "S/N", "districtCode": "DOC", "altitude": null, "stationType": "BIKE", "address": "122 - Jos\u00e9 Mar\u00eda V\u00e9rtiz-Av. Dr. R\u00edo de la Loza", "zipCode": "06500", "location": {"lat": 19.425502, "lon": -99.146337}, "districtName": "Doctores", "name": "122 JOSE MARIA VERTIZ-AV.DR. RIO DE LA LOZA", "nearbyStations": [99, 108, 110], "id": 122}, {"addressNumber": "S/N", "districtCode": "DVC", "altitude": null, "stationType": "BIKE", "address": "357 - Matias Romero -Amores", "zipCode": "3100", "location": {"lat": 19.380598, "lon": -99.1669248}, "districtName": "Del Valle Centro", "name": "357 MATIAS ROMERO -AMORES", "nearbyStations": [356, 358, 373], "id": 357}, {"addressNumber": "S/N", "districtCode": "DVC", "altitude": null, "stationType": "BIKE", "address": "358 - Nicolas San Juan-Matias Romero", "zipCode": "3100", "location": {"lat": 19.380168, "lon": -99.164222}, "districtName": "Del Valle Centro", "name": "358 NICOLAS SAN JUAN-MATIAS ROMERO ", "nearbyStations": [357, 360, 373], "id": 358}, {"addressNumber": "S/N", "districtCode": "DVC", "altitude": null, "stationType": "BIKE,TPV", "address": "359 - Matias Romero -Pestallozzi", "zipCode": "3100", "location": {"lat": 19.379269, "lon": -99.161169}, "districtName": "Del Valle Centro", "name": "359 MATIAS ROMERO -PESTALLOZZI", "nearbyStations": [342, 360, 374], "id": 359}, {"addressNumber": "S/N", "districtCode": "DVC", "altitude": null, "stationType": "BIKE", "address": "360 - Heriberto Fr\u00edas-Matias Romero", "zipCode": "3100", "location": {"lat": 19.3790279, "lon": -99.1628259}, "districtName": "Del Valle Centro", "name": "360 HERIBERTO FR\u00cdAS-MATIAS ROMERO", "nearbyStations": [358, 359, 374], "id": 360}, {"addressNumber": "S/N", "districtCode": "DVC", "altitude": null, "stationType": "BIKE", "address": "324 - Amores-Avenida Eugenia", "zipCode": "3100", "location": {"lat": 19.3872468, "lon": -99.1656554}, "districtName": "Del Valle Centro", "name": "324 AMORES-AVENIDA EUGENIA", "nearbyStations": [323, 336, 337], "id": 324}, {"addressNumber": "S/N", "districtCode": "DVC", "altitude": null, "stationType": "BIKE", "address": "343 - Enrique R\u00e9bsamen-Divisi\u00f3n Del Norte", "zipCode": "3100", "location": {"lat": 19.384099, "lon": -99.160826}, "districtName": "Del Valle Centro", "name": "343 ENRIQUE R\u00c9BSAMEN-DIVISI\u00d3N DEL NORTE", "nearbyStations": [338, 341, 344], "id": 343}, {"addressNumber": "S/N", "districtCode": "DVC", "altitude": null, "stationType": "BIKE", "address": "344 - Heriberto Fr\u00edas-Angel Urraza Eje 6 Sur", "zipCode": "3100", "location": {"lat": 19.382107, "lon": -99.162243}, "districtName": "Del Valle Centro", "name": "344 HERIBERTO FR\u00cdAS-ANGEL URRAZA EJE 6 SUR", "nearbyStations": [338, 343, 358], "id": 344}, {"addressNumber": "S/N", "districtCode": "DVC", "altitude": null, "stationType": "BIKE", "address": "335 - Magdalena-Ameyalco", "zipCode": "3100", "location": {"lat": 19.387003, "lon": -99.173504}, "districtName": "Del Valle Centro", "name": "335 MAGDALENA-AMEYALCO", "nearbyStations": [326, 334, 346], "id": 335}, {"addressNumber": "S/N", "districtCode": "DVC", "altitude": null, "stationType": "BIKE", "address": "336 - San Borja-Cda. Bartoloche", "zipCode": "3100", "location": {"lat": 19.385531, "lon": -99.169673}, "districtName": "Del Valle Centro", "name": "336 SAN BORJA-CDA. BARTOLOCHE", "nearbyStations": [325, 337, 345], "id": 336}, {"addressNumber": "S/N", "districtCode": "DVC", "altitude": null, "stationType": "BIKE,TPV", "address": "337 - San Borja-Mart\u00edn Menlalde", "zipCode": "3100", "location": {"lat": 19.384849, "lon": -99.16704}, "districtName": "Del Valle Centro", "name": "337 SAN BORJA-MART\u00cdN MENLALDE", "nearbyStations": [324, 336, 338], "id": 337}, {"addressNumber": "S/N", "districtCode": "DVC", "altitude": null, "stationType": "BIKE", "address": "338 - Nicolas San Juan-San Borja", "zipCode": "3100", "location": {"lat": 19.384249, "lon": -99.163273}, "districtName": "Del Valle Centro", "name": "338 NICOLAS SAN JUAN-SAN BORJA", "nearbyStations": [324, 336, 337], "id": 338}, {"addressNumber": "S/N", "districtCode": "DVC", "altitude": null, "stationType": "BIKE", "address": "373 - Pilares-Gabriel Mancera", "zipCode": "3100", "location": {"lat": 19.377968, "lon": -99.166663}, "districtName": "Del Valle Centro", "name": "373 PILARES-GABRIEL MANCERA", "nearbyStations": [357, 372, 378], "id": 373}, {"addressNumber": "S/N", "districtCode": "DVC", "altitude": null, "stationType": "BIKE,TPV", "address": "374 - Anax\u00e1goras-Pilares", "zipCode": "3100", "location": {"lat": 19.376964, "lon": -99.161116}, "districtName": "Del Valle Centro", "name": "374 PIT\u00c1GORAS-PILARES", "nearbyStations": [359, 375, 376], "id": 374}, {"addressNumber": "S/N", "districtCode": "DVN", "altitude": null, "stationType": "BIKE", "address": "282 - La Morena-Eje 2 Poniente Gabriel Mancera", "zipCode": "3103", "location": {"lat": 19.398692, "lon": -99.161273}, "districtName": "Del Valle Norte", "name": "282 LA MORENA-EJE 2 PONIENTE GABRIEL MANCERA", "nearbyStations": [278, 293, 294], "id": 282}, {"addressNumber": "S/N", "districtCode": "DVN", "altitude": null, "stationType": "BIKE", "address": "279 - La Morena-Providencia", "zipCode": "3103", "location": {"lat": 19.399908, "lon": -99.166553}, "districtName": "Del Valle Norte", "name": "279 LA MORENA-PROVIDENCIA", "nearbyStations": [164, 278, 282], "id": 279}, {"addressNumber": "S/N", "districtCode": "DVN", "altitude": null, "stationType": "BIKE", "address": "323 - Concepci\u00f3n Beistegui-Gabriel Mancera", "zipCode": "3103", "location": {"lat": 19.389026, "lon": -99.163403}, "districtName": "Del Valle Norte", "name": "323 CONCEPCI\u00d3N BEISTEGUI-GABRIEL MANCERA", "nearbyStations": [319, 322, 324], "id": 323}, {"addressNumber": "S/N", "districtCode": "DVN", "altitude": null, "stationType": "BIKE", "address": "316 - San Francisco-Concepci\u00f3n Beistegui", "zipCode": "3103", "location": {"lat": 19.391056, "lon": -99.1712}, "districtName": "Del Valle Norte", "name": "316 SAN FRANCISCO-CONCEPCI\u00d3N BEISTEGUI", "nearbyStations": [301, 302, 315], "id": 316}, {"addressNumber": "S/N", "districtCode": "DVN", "altitude": null, "stationType": "BIKE,TPV", "address": "317 - Avenida Coyoac\u00e1n-Torres Adalid", "zipCode": "3103", "location": {"lat": 19.391456, "lon": -99.166157}, "districtName": "Del Valle Norte", "name": "317 AVENIDA COYOAC\u00c1N-TORRES ADALID", "nearbyStations": [299, 300, 318], "id": 317}, {"addressNumber": "S/N", "districtCode": "DVN", "altitude": null, "stationType": "BIKE", "address": "318 - Luz Savi\u00f1\u00f3n-Amores", "zipCode": "3103", "location": {"lat": 19.392249, "lon": -99.164127}, "districtName": "Del Valle Norte", "name": "318 LUZ SAVI\u00d1\u00d3N-AMORES", "nearbyStations": [299, 317, 319], "id": 318}, {"addressNumber": "S/N", "districtCode": "DVN", "altitude": null, "stationType": "BIKE", "address": "319 - Diagonal San Antonio-Luz Savi\u00f1on", "zipCode": "3103", "location": {"lat": 19.391991, "lon": -99.162684}, "districtName": "Del Valle Norte", "name": "319 DIAGONAL SAN ANTONIO-LUZ SAVI\u00d1ON", "nearbyStations": [298, 318, 320], "id": 319}, {"addressNumber": "S/N", "districtCode": "DVN", "altitude": null, "stationType": "BIKE", "address": "291 - Magdalena-Divisi\u00f3n Del Norte", "zipCode": "3103", "location": {"lat": 19.397651, "lon": -99.169946}, "districtName": "Del Valle Norte", "name": "291 MAGDALENA-DIVISI\u00d3N DEL NORTE", "nearbyStations": [283, 284, 290], "id": 291}, {"addressNumber": "S/N", "districtCode": "DVN", "altitude": null, "stationType": "BIKE", "address": "292 - Adolfo Prieto-Eje 4 Sur Xola", "zipCode": "3103", "location": {"lat": 19.396917, "lon": -99.166264}, "districtName": "Del Valle Norte", "name": "292 ADOLFO PRIETO-EJE 4 SUR XOLA", "nearbyStations": [283, 293, 299], "id": 292}, {"addressNumber": "S/N", "districtCode": "DVN", "altitude": null, "stationType": "BIKE,TPV", "address": "293 - Mier Y Pesado-Eje 4 Sur Xola", "zipCode": "3103", "location": {"lat": 19.397373, "lon": -99.164598}, "districtName": "Del Valle Norte", "name": "293 MIER Y PESADO-EJE 4 SUR XOLA", "nearbyStations": [283, 292, 294], "id": 293}, {"addressNumber": "S/N", "districtCode": "DVN", "altitude": null, "stationType": "BIKE", "address": "298 - Romero De Terreros-Gabriel Mancera", "zipCode": "3103", "location": {"lat": 19.394073, "lon": -99.16214}, "districtName": "Del Valle Norte", "name": "298 ROMERO DE TERREROS-GABRIEL MANCERA", "nearbyStations": [294, 318, 319], "id": 298}, {"addressNumber": "S/N", "districtCode": "DVN", "altitude": null, "stationType": "BIKE", "address": "299 - Romero De Terreros-Mier Y Pesado", "zipCode": "3103", "location": {"lat": 19.394601, "lon": -99.165054}, "districtName": "Del Valle Norte", "name": "299 ROMERO DE TERREROS-MIER Y PESADO", "nearbyStations": [292, 298, 318], "id": 299}, {"addressNumber": "S/N", "districtCode": "DVN", "altitude": null, "stationType": "BIKE", "address": "300 - Providencia -Luz Savi\u00f1on", "zipCode": "3103", "location": {"lat": 19.393268, "lon": -99.168333}, "districtName": "Del Valle Norte", "name": "300 PROVIDENCIA -LUZ SAVI\u00d1ON", "nearbyStations": [301, 302, 317], "id": 300}, {"addressNumber": "S/N", "districtCode": "DVN", "altitude": null, "stationType": "BIKE", "address": "301 - Luz Savi\u00f1\u00f3n-Magdalena", "zipCode": "3103", "location": {"lat": 19.393807, "lon": -99.171133}, "districtName": "Del Valle Norte", "name": "301 LUZ SAVI\u00d1\u00d3N-MAGDALENA", "nearbyStations": [300, 302, 316], "id": 301}, {"addressNumber": "S/N", "districtCode": "DVN", "altitude": null, "stationType": "BIKE", "address": "302 - Luz Savi\u00f1on-Magdalena", "zipCode": "3103", "location": {"lat": 19.393832, "lon": -99.171466}, "districtName": "Del Valle Norte", "name": "302 LUZ SAVI\u00d1ON-MAGDALENA", "nearbyStations": [301, 303, 304], "id": 302}, {"addressNumber": "S/N", "districtCode": "DVS", "altitude": null, "stationType": "BIKE", "address": "377 - Heriberto Fr\u00edas-Miguel Laurent", "zipCode": "3104", "location": {"lat": 19.375394, "lon": -99.16375}, "districtName": "Del Valle Sur", "name": "377 HERIBERTO FR\u00cdAS-MIGUEL LAURENT", "nearbyStations": [373, 376, 400], "id": 377}, {"addressNumber": "S/N", "districtCode": "DVS", "altitude": null, "stationType": "BIKE", "address": "378 - Miguel Laurent-Amores", "zipCode": "3104", "location": {"lat": 19.375823, "lon": -99.168076}, "districtName": "Del Valle Sur", "name": "378 MIGUEL LAURENT-AMORES", "nearbyStations": [372, 373, 379], "id": 378}, {"addressNumber": "S/N", "districtCode": "DVS", "altitude": null, "stationType": "BIKE,TPV", "address": "390 - Oso-Felix Cuevas", "zipCode": "3104", "location": {"lat": 19.373228, "lon": -99.17826}, "districtName": "Del Valle Sur", "name": "390 OSO-FELIX CUEVAS", "nearbyStations": [389, 391, 416], "id": 390}, {"addressNumber": "S/N", "districtCode": "DVS", "altitude": null, "stationType": "BIKE", "address": "391 - Oso-Felix Cuevas", "zipCode": "3104", "location": {"lat": 19.373142, "lon": -99.178283}, "districtName": "Del Valle Sur", "name": "391 OSO-FELIX CUEVAS", "nearbyStations": [389, 390, 416], "id": 391}, {"addressNumber": "S/N", "districtCode": "DVS", "altitude": null, "stationType": "BIKE", "address": "394 - Dr. Roberto Gayol-Felix Cuevas", "zipCode": "3104", "location": {"lat": 19.372437, "lon": -99.171592}, "districtName": "Del Valle Sur", "name": "394 DR. ROBERTO GAYOL-FELIX CUEVAS", "nearbyStations": [393, 395, 396], "id": 394}, {"addressNumber": "S/N", "districtCode": "DVS", "altitude": null, "stationType": "BIKE", "address": "395 - San Lorenzo-Callej\u00f3n Mart\u00edn Menlalde", "zipCode": "3104", "location": {"lat": 19.373742, "lon": -99.169814}, "districtName": "Del Valle Sur", "name": "395 SAN LORENZO-CALLEJ\u00d3N MART\u00cdN MENLALDE", "nearbyStations": [379, 394, 396], "id": 395}, {"addressNumber": "S/N", "districtCode": "DVS", "altitude": null, "stationType": "BIKE", "address": "396 - Mart\u00edn Menlalde-Felix Cuevas", "zipCode": "3104", "location": {"lat": 19.371554, "lon": -99.170187}, "districtName": "Del Valle Sur", "name": "396 MART\u00cdN MENLALDE-FELIX CUEVAS", "nearbyStations": [394, 395, 413], "id": 396}, {"addressNumber": "S/N", "districtCode": "DVS", "altitude": null, "stationType": "BIKE", "address": "397 - San Lorenzo-Gabriel Mancera", "zipCode": "3104", "location": {"lat": 19.373194, "lon": -99.167247}, "districtName": "Del Valle Sur", "name": "397 SAN LORENZO-GABRIEL MANCERA", "nearbyStations": [398, 399, 400], "id": 397}, {"addressNumber": "S/N", "districtCode": "DVS", "altitude": null, "stationType": "BIKE", "address": "398 - Sanchez Azcona-Felix Cuevas", "zipCode": "3104", "location": {"lat": 19.37103, "lon": -99.16566}, "districtName": "Del Valle Sur", "name": "398 SANCHEZ AZCONA-FELIX CUEVAS", "nearbyStations": [397, 399, 400], "id": 398}, {"addressNumber": "S/N", "districtCode": "DVS", "altitude": null, "stationType": "BIKE", "address": "399 - Heriberto Fr\u00edas-San Lorenzo", "zipCode": "3104", "location": {"lat": 19.372407, "lon": -99.164519}, "districtName": "Del Valle Sur", "name": "399 HERIBERTO FR\u00cdAS-SAN LORENZO", "nearbyStations": [397, 398, 400], "id": 399}, {"addressNumber": "S/N", "districtCode": "DVS", "altitude": null, "stationType": "BIKE", "address": "400 - San Lorenzo-Heriberto Frias", "zipCode": "3104", "location": {"lat": 19.3726458, "lon": -99.1642743}, "districtName": "Del Valle Sur", "name": "400 SAN LORENZO-HERIBERTO FRIAS", "nearbyStations": [397, 398, 399], "id": 400}, {"addressNumber": "S/N", "districtCode": "DVS", "altitude": null, "stationType": "BIKE", "address": "433 - Jose Mar\u00eda Olloqui-Lop\u00e9z Costilla", "zipCode": "3104", "location": {"lat": 19.363558, "lon": -99.170819}, "districtName": "Del Valle Sur", "name": "433 JOSE MAR\u00cdA OLLOQUI-LOP\u00c9Z COSTILLA", "nearbyStations": [434, 435, 439], "id": 433}, {"addressNumber": "S/N", "districtCode": "DVS", "altitude": null, "stationType": "BIKE,TPV", "address": "434 - Jose Mar\u00eda Olloqui-Amores", "zipCode": "3104", "location": {"lat": 19.363776, "lon": -99.171498}, "districtName": "Del Valle Sur", "name": "434 JOSE MAR\u00cdA OLLOQUI-AMORES", "nearbyStations": [433, 435, 439], "id": 434}, {"addressNumber": "S/N", "districtCode": "DVS", "altitude": null, "stationType": "BIKE", "address": "424 - Amores-Jos\u00e9 Mar\u00eda Rico (Eje 8)", "zipCode": "3104", "location": {"lat": 19.367208, "lon": -99.170531}, "districtName": "Del Valle Sur", "name": "424 AMORES-JOS\u00c9 MAR\u00cdA RICO (EJE 8)", "nearbyStations": [413, 425, 435], "id": 424}, {"addressNumber": "S/N", "districtCode": "DVS", "altitude": null, "stationType": "BIKE", "address": "425 - Nicolas San Juan-Avenida Universidad", "zipCode": "3104", "location": {"lat": 19.367087, "lon": -99.16741}, "districtName": "Del Valle Sur", "name": "425 NICOLAS SAN JUAN-AVENIDA UNIVERSIDAD", "nearbyStations": [411, 412, 426], "id": 425}, {"addressNumber": "S/N", "districtCode": "DVS", "altitude": null, "stationType": "BIKE", "address": "413 - Parroquia-Avenida Coyoac\u00e1n", "zipCode": "3104", "location": {"lat": 19.369782, "lon": -99.171906}, "districtName": "Del Valle Sur", "name": "413 PARROQUIA-AVENIDA COYOAC\u00c1N", "nearbyStations": [396, 414, 424], "id": 413}, {"addressNumber": "S/N", "districtCode": "DVS", "altitude": null, "stationType": "BIKE", "address": "414 - Parroquia-Jos\u00e9 Ignacio Bartolache", "zipCode": "3104", "location": {"lat": 19.370187, "lon": -99.173712}, "districtName": "Del Valle Sur", "name": "414 PARROQUIA-JOS\u00c9 IGNACIO BARTOLACHE", "nearbyStations": [413, 415, 423], "id": 414}, {"addressNumber": "S/N", "districtCode": "DVS", "altitude": null, "stationType": "BIKE", "address": "415 - San Francisco-Parroqu\u00eda", "zipCode": "3104", "location": {"lat": 19.371498, "lon": -99.17602}, "districtName": "Del Valle Sur", "name": "415 SAN FRANCISCO-PARROQU\u00cdA", "nearbyStations": [391, 414, 416], "id": 415}, {"addressNumber": "S/N", "districtCode": "ESC", "altitude": null, "stationType": "BIKE", "address": "285 - 12 De Octubre-Mineria", "zipCode": "11800", "location": {"lat": 19.399688, "lon": -99.177524}, "districtName": "Escand\u00f3n", "name": "285 12 DE OCTUBRE-MINERIA", "nearbyStations": [171, 173, 286], "id": 285}, {"addressNumber": "S/N", "districtCode": "ESC", "altitude": null, "stationType": "BIKE", "address": "286 - 13 De Septiembre-Avenida Patriotismo", "zipCode": "11800", "location": {"lat": 19.399201, "lon": -99.179943}, "districtName": "Escand\u00f3n", "name": "286 13 DE SEPTIEMBRE-AVENIDA PATRIOTISMO", "nearbyStations": [171, 285, 287], "id": 286}, {"addressNumber": "S/N", "districtCode": "ESC", "altitude": null, "stationType": "BIKE", "address": "287 - 13 De Septiembre-Puente De La Morena", "zipCode": "11800", "location": {"lat": 19.398946, "lon": -99.183254}, "districtName": "Escand\u00f3n", "name": "287 13 DE SEPTIEMBRE-PUENTE DE LA MORENA", "nearbyStations": [286, 288, 311], "id": 287}, {"addressNumber": "S/N", "districtCode": "ESC", "altitude": null, "stationType": "BIKE", "address": "175 - Mutualismo-Jos\u00e9 Mart\u00ed", "zipCode": null, "location": {"lat": 19.400806, "lon": -99.172645}, "districtName": "Escand\u00f3n", "name": "175 MUTUALISMO-JOS\u00c9 MART\u00ed", "nearbyStations": [169, 179, 182], "id": 175}, {"addressNumber": "S/N", "districtCode": "ESC", "altitude": null, "stationType": "BIKE", "address": "172 - General Francisco Murguia-Jose Mart\u00ed", "zipCode": null, "location": {"lat": 19.403365, "lon": -99.181553}, "districtName": "Escand\u00f3n", "name": "172 GENERAL FRANCISCO MURGUIA-JOSE MART\u00cd", "nearbyStations": [167, 170, 171], "id": 172}, {"addressNumber": "S/N", "districtCode": "ESC", "altitude": null, "stationType": "BIKE", "address": "166 - Progreso-Cda. Antonio Maceo", "zipCode": null, "location": {"lat": 19.406069, "lon": -99.183549}, "districtName": "Escand\u00f3n", "name": "166 PROGRESO-CDA. ANTONIO MACEO", "nearbyStations": [170, 172, 181], "id": 166}, {"addressNumber": "S/N", "districtCode": "ESC", "altitude": null, "stationType": "BIKE", "address": "167 - General Salvador Alvarado-Progreso", "zipCode": null, "location": {"lat": 19.404651, "lon": -99.179375}, "districtName": "Escand\u00f3n", "name": "167 GENERAL SALVADOR ALVARADO-PROGRESO", "nearbyStations": [168, 172, 178], "id": 167}, {"addressNumber": "S/N", "districtCode": "ESC", "altitude": null, "stationType": "BIKE,TPV", "address": "168 - Comercio-Progreso", "zipCode": null, "location": {"lat": 19.403997, "lon": -99.1776}, "districtName": "Escand\u00f3n", "name": "168 COMERCIO-PROGRESO", "nearbyStations": [167, 169, 173], "id": 168}, {"addressNumber": "S/N", "districtCode": "ESC", "altitude": null, "stationType": "BIKE", "address": "169 - Prosperidad-Progreso", "zipCode": null, "location": {"lat": 19.403019, "lon": -99.174934}, "districtName": "Escand\u00f3n", "name": "169 PROSPERIDAD-PROGRESO", "nearbyStations": [168, 170, 175], "id": 169}, {"addressNumber": "S/N", "districtCode": "ESC", "altitude": null, "stationType": "BIKE", "address": "170 - Observatorio Oriente-Revoluci\u00f3n", "zipCode": null, "location": {"lat": 19.404029, "lon": -99.184342}, "districtName": "Escand\u00f3n", "name": "170 OBSERVATORIO ORIENTE-REVOLUCI\u00d3N", "nearbyStations": [166, 167, 172], "id": 170}, {"addressNumber": "S/N", "districtCode": "EXI", "altitude": null, "stationType": "BIKE", "address": "383 - Luis Caracci-2da. Luis Caracci", "zipCode": "3740", "location": {"lat": 19.375764, "lon": -99.181527}, "districtName": "Extremadura Insurgentes", "name": "383 LUIS CARACCI-2DA. LUIS CARACCI", "nearbyStations": [366, 382, 387], "id": 383}, {"addressNumber": "S/N", "districtCode": "EXI", "altitude": null, "stationType": "BIKE", "address": "366 - Porfirio D\u00edaz-Augusto Rod\u00edn", "zipCode": "3740", "location": {"lat": 19.378345, "lon": -99.181973}, "districtName": "Extremadura Insurgentes", "name": "366 PORFIRIO D\u00cdAZ-AUGUSTO ROD\u00cdN", "nearbyStations": [362, 367, 368], "id": 366}, {"addressNumber": "S/N", "districtCode": "GPM", "altitude": null, "stationType": "BIKE", "address": "428 - Prolongaci\u00f3n Uxmal-Av. Popocatepetl (Eje 8)", "zipCode": "3340", "location": {"lat": 19.363418, "lon": -99.160353}, "districtName": "General Pedro Maria Anaya", "name": "428 PROLONGACI\u00d3N UXMAL-AV. POPOCATEPETL (EJE 8)", "nearbyStations": [427, 430, 431], "id": 428}, {"addressNumber": "S/N", "districtCode": "GPM", "altitude": null, "stationType": "BIKE", "address": "431 - Bruno Traven-Paz Montes De Oca", "zipCode": "3340", "location": {"lat": 19.36145, "lon": -99.15822}, "districtName": "General Pedro Maria Anaya", "name": "431 BRUNO TRAVEN-PAZ MONTES DE OCA", "nearbyStations": [428, 429, 430], "id": 431}, {"addressNumber": "S/N", "districtCode": "GPM", "altitude": null, "stationType": "BIKE", "address": "432 - Carrillo Pto-Golondrinas", "zipCode": "3340", "location": {"lat": 19.361296, "lon": -99.162581}, "districtName": "General Pedro Maria Anaya", "name": "432 CARRILLO PUERTO-AV. M\u00c9XICO-COYOAC\u00c1N", "nearbyStations": [442, 443, 444], "id": 432}, {"addressNumber": "S/N", "districtCode": "GPM", "altitude": null, "stationType": "BIKE", "address": "444 - General Manuel Rinc\u00f3n-Agust\u00edn Gutierrez", "zipCode": "3340", "location": {"lat": 19.359384, "lon": -99.159425}, "districtName": "General Pedro Maria Anaya", "name": "444 GENERAL MANUEL RINC\u00d3N-AGUST\u00cdN GUTIERREZ", "nearbyStations": [431, 432, 443], "id": 444}, {"addressNumber": "S/N", "districtCode": "GPM", "altitude": null, "stationType": "BIKE", "address": "445 - Riff-Avenida Rio Churubusco", "zipCode": "3340", "location": {"lat": 19.35827, "lon": -99.156105}, "districtName": "General Pedro Maria Anaya", "name": "445 RIFF-AVENIDA RIO CHURUBUSCO", "nearbyStations": [431, 444, 446], "id": 445}, {"addressNumber": "S/N", "districtCode": "GPM", "altitude": null, "stationType": "BIKE,TPV", "address": "446 - Riff-Avenida Rio Churubusco", "zipCode": "3340", "location": {"lat": 19.3591196, "lon": -99.1561282}, "districtName": "General Pedro Maria Anaya", "name": "446 RIFF-AVENIDA RIO CHURUBUSCO", "nearbyStations": [431, 444, 445], "id": 446}, {"addressNumber": "S/N", "districtCode": "GRA", "altitude": null, "stationType": "BIKE", "address": "242 - Miguel de Cervantes Saavedra-Pr\u00f3l. Moliere", "zipCode": "11510", "location": {"lat": 19.440344, "lon": -99.20105}, "districtName": "Granada", "name": "242 MIGUEL DE CERVANTES SAAVEDRA-PROL MOLIERE ", "nearbyStations": [198, 199, 243], "id": 242}, {"addressNumber": "S/N", "districtCode": "GRA", "altitude": null, "stationType": "BIKE", "address": "244 - Miguel de Cervantes Saavedra-Lago Victoria", "zipCode": "11510", "location": {"lat": 19.440885, "lon": -99.193315}, "districtName": "Granada", "name": "244 MIGUEL DE CERVANTES SAAVEDRA-LAGO VICTORIA ", "nearbyStations": [196, 243, 245], "id": 244}, {"addressNumber": "S/N", "districtCode": "GRA", "altitude": null, "stationType": "BIKE", "address": "245 - Lago Onega-Av. Ej\u00e9rcito Nacional", "zipCode": "11510", "location": {"lat": 19.438165, "lon": -99.190368}, "districtName": "Granada", "name": "245 LAGO ONEGA-AV. EJERCITO NACIONAL ", "nearbyStations": [196, 200, 201], "id": 245}, {"addressNumber": "S/N", "districtCode": "H-C", "altitude": null, "stationType": "BIKE", "address": "177 - BENJAMIN HILL-CARLOS ZETINA", "zipCode": null, "location": {"lat": 19.408841, "lon": -99.181692}, "districtName": "Hip\u00f3dromo Condesa", "name": "177 BENJAMIN HILL-CARLOS ZETINA", "nearbyStations": [176, 178, 190], "id": 177}, {"addressNumber": "S/N", "districtCode": "H-C", "altitude": null, "stationType": "BIKE,TPV", "address": "178 - Tamaulipas-Francisco Murgu\u00eda", "zipCode": null, "location": {"lat": 19.406833, "lon": -99.180457}, "districtName": "Hip\u00f3dromo Condesa", "name": "178 TAMAULIPAS-FRANCISCO MURGU\u00cdA", "nearbyStations": [166, 167, 177], "id": 178}, {"addressNumber": "S/N", "districtCode": "H-C", "altitude": null, "stationType": "BIKE", "address": "073 - Campeche - Tamaulipas", "zipCode": "06170", "location": {"lat": 19.410245, "lon": -99.175612}, "districtName": "Hip\u00f3dromo Condesa", "name": "73 CAMPECHE-TAMAULIPAS", "nearbyStations": [67, 68, 75], "id": 73}, {"addressNumber": "S/N", "districtCode": "H-C", "altitude": null, "stationType": "BIKE", "address": "075 - Alfonso Reyes - Atlixco", "zipCode": "06170", "location": {"lat": 19.408722, "lon": -99.17669}, "districtName": "Hip\u00f3dromo Condesa", "name": "75 ALFONSO REYES-ATLIXCO", "nearbyStations": [73, 77, 78], "id": 75}, {"addressNumber": "S/N", "districtCode": "HIP", "altitude": null, "stationType": "BIKE", "address": "076 - Amsterdam - Chilpancingo", "zipCode": "06100", "location": {"lat": 19.409439, "lon": -99.170462}, "districtName": "Hip\u00f3dromo", "name": "76 AMSTERDAM-CHILPANCINGO", "nearbyStations": [74], "id": 76}, {"addressNumber": "S/N", "districtCode": "HIP", "altitude": null, "stationType": "BIKE", "address": "077 - Choapan - Tamaulipas", "zipCode": "06100", "location": {"lat": 19.406765, "lon": -99.178321}, "districtName": "Hip\u00f3dromo", "name": "77 CHOAPAN-TAMAULIPAS", "nearbyStations": [78, 82], "id": 77}, {"addressNumber": "S/N", "districtCode": "HIP", "altitude": null, "stationType": "BIKE,TPV", "address": "078 - Benjam\u00edn Hill - Tamaulipas", "zipCode": "06170", "location": {"lat": 19.407503, "lon": -99.177382}, "districtName": "Hip\u00f3dromo", "name": "78 BENJAMIN HILL-TAMAULIPAS", "nearbyStations": [77, 82], "id": 78}, {"addressNumber": "S/N", "districtCode": "HIP", "altitude": null, "stationType": "BIKE", "address": "079 - Saltillo - Alfonso Reyes", "zipCode": "06100", "location": {"lat": 19.407534, "lon": -99.174427}, "districtName": "Hip\u00f3dromo", "name": "79 SALTILLO-ALFONSO REYES", "nearbyStations": [75, 80, 83], "id": 79}, {"addressNumber": "S/N", "districtCode": "HIP", "altitude": null, "stationType": "BIKE", "address": "080 - Nuevo Le\u00f3n - Aguascalientes", "zipCode": "06100", "location": {"lat": 19.407307, "lon": -99.172118}, "districtName": "Hip\u00f3dromo", "name": "80 NUEVO LEON-AGUASCALIENTES", "nearbyStations": [79, 83, 84], "id": 80}, {"addressNumber": "S/N", "districtCode": "HIP", "altitude": null, "stationType": "BIKE", "address": "081 - Aguascalientes - Insurgentes", "zipCode": "06100", "location": {"lat": 19.408006, "lon": -99.168475}, "districtName": "Hip\u00f3dromo", "name": "81 AGUASCALIENTES-INSURGENTES", "nearbyStations": [76, 84], "id": 81}, {"addressNumber": "S/N", "districtCode": "HIP", "altitude": null, "stationType": "BIKE,TPV", "address": "061 - Avenida M\u00e9xico - Sonora", "zipCode": "06100", "location": {"lat": 19.413742, "lon": -99.169525}, "districtName": "Hip\u00f3dromo", "name": "61 AVENIDA MEXICO-SONORA", "nearbyStations": [63], "id": 61}, {"addressNumber": "S/N", "districtCode": "HIP", "altitude": null, "stationType": "BIKE", "address": "069 - Michoac\u00e1n - Amsterdam", "zipCode": "06100", "location": {"lat": 19.410733, "lon": -99.168111}, "districtName": "Hip\u00f3dromo", "name": "69 MICHOACAN-AMSTERDAM", "nearbyStations": [76, 77], "id": 69}, {"addressNumber": "S/N", "districtCode": "HIP", "altitude": null, "stationType": "BIKE", "address": "059 - Popocat\u00e9petl - Amsterdam", "zipCode": "06100", "location": {"lat": 19.415121, "lon": -99.166661}, "districtName": "Hip\u00f3dromo", "name": "59 POPOCATEPETL-AMSTERDAM", "nearbyStations": [55, 56, 61], "id": 59}, {"addressNumber": "S/N", "districtCode": "HIP", "altitude": null, "stationType": "BIKE,TPV", "address": "083 - Nuevo Le\u00f3n - Alfonso Reyes", "zipCode": "06100", "location": {"lat": 19.406296, "lon": -99.172117}, "districtName": "Hip\u00f3dromo", "name": "83 NUEVO LEON-ALFONSO REYES", "nearbyStations": [79, 80], "id": 83}, {"addressNumber": "S/N", "districtCode": "HIP", "altitude": null, "stationType": "BIKE", "address": "084 - Chilpancingo - Tlaxcala", "zipCode": "06100", "location": {"lat": 19.40702, "lon": -99.169587}, "districtName": "Hip\u00f3dromo", "name": "84 CHILPANCINGO-TLAXCALA", "nearbyStations": [81, 83], "id": 84}, {"addressNumber": "S/N", "districtCode": "HIP", "altitude": null, "stationType": "BIKE", "address": "071 - Amsterdam - Michoacan", "zipCode": "06100", "location": {"lat": 19.411423, "lon": -99.171351}, "districtName": "Hip\u00f3dromo", "name": "71 AMSTERDAM-MICHOACAN", "nearbyStations": [74, 76], "id": 71}, {"addressNumber": "S/N", "districtCode": "HIP", "altitude": null, "stationType": "BIKE", "address": "064 - Sonora - Amsterdam", "zipCode": "06100", "location": {"lat": 19.412877, "lon": -99.166986}, "districtName": "Hip\u00f3dromo", "name": "64 SONORA-AMSTERDAM", "nearbyStations": [61, 69], "id": 64}, {"addressNumber": "S/N", "districtCode": "HIP", "altitude": null, "stationType": "BIKE", "address": "179 - Nuevo Le\u00f3n-Quintana Roo", "zipCode": null, "location": {"lat": 19.404452, "lon": -99.171438}, "districtName": "Hip\u00f3dromo", "name": "179 NUEVO LE\u00d3N-QUINTANA ROO", "nearbyStations": [154, 180, 182], "id": 179}, {"addressNumber": "S/N", "districtCode": "HIP", "altitude": null, "stationType": "BIKE", "address": "180 - Quintana Roo-Villa Hermosa", "zipCode": null, "location": {"lat": 19.404554, "lon": -99.169953}, "districtName": "Hip\u00f3dromo", "name": "180 QUINTANA ROO-VILLA HERMOSA", "nearbyStations": [154, 179, 182], "id": 180}, {"addressNumber": "S/N", "districtCode": "HIP", "altitude": null, "stationType": "BIKE,TPV", "address": "182 - PROGRESO-ASTRONOMOS", "zipCode": null, "location": {"lat": 19.402089, "lon": -99.17139}, "districtName": "Hip\u00f3dromo", "name": "182 PROGRESO-ASTRONOMOS", "nearbyStations": [175, 179], "id": 182}, {"addressNumber": "S/N", "districtCode": "INM", "altitude": null, "stationType": "BIKE,TPV", "address": "417 - Goya-Augusto Rod\u00edn", "zipCode": "3920", "location": {"lat": 19.373262, "lon": -99.184333}, "districtName": "Insurgentes Mixcoac", "name": "417 GOYA-AUGUSTO ROD\u00cdN", "nearbyStations": [384, 385, 386], "id": 417}, {"addressNumber": "S/N", "districtCode": "INM", "altitude": null, "stationType": "BIKE", "address": "418 - Galicia-Actipan", "zipCode": "3920", "location": {"lat": 19.371152, "lon": -99.183034}, "districtName": "Insurgentes Mixcoac", "name": "418 GALICIA-ACTIPAN", "nearbyStations": [388, 417, 419], "id": 418}, {"addressNumber": "S/N", "districtCode": "INM", "altitude": null, "stationType": "BIKE", "address": "419 - Actipan-Cadiz", "zipCode": "3920", "location": {"lat": 19.370606, "lon": -99.181502}, "districtName": "Insurgentes Mixcoac", "name": "419 ACTIPAN-CADIZ", "nearbyStations": [418, 420, 421], "id": 419}, {"addressNumber": "S/N", "districtCode": "INM", "altitude": null, "stationType": "BIKE", "address": "384 - Empresa-Poussin", "zipCode": "3920", "location": {"lat": 19.375873, "lon": -99.185583}, "districtName": "Insurgentes Mixcoac", "name": "384 EMPRESA-POUSSIN", "nearbyStations": [385, 386, 417], "id": 384}, {"addressNumber": "S/N", "districtCode": "INM", "altitude": null, "stationType": "BIKE,TPV", "address": "385 - Poussin-Empresa", "zipCode": "3920", "location": {"lat": 19.375651, "lon": -99.18558}, "districtName": "Insurgentes Mixcoac", "name": "385 POUSSIN-EMPRESA", "nearbyStations": [384, 386, 417], "id": 385}, {"addressNumber": "S/N", "districtCode": "INM", "altitude": null, "stationType": "BIKE", "address": "386 - Poussin-Donatello", "zipCode": "3920", "location": {"lat": 19.37484, "lon": -99.185846}, "districtName": "Insurgentes Mixcoac", "name": "386 POUSSIN-DONATELLO", "nearbyStations": [384, 385, 417], "id": 386}, {"addressNumber": "S/N", "districtCode": "INM", "altitude": null, "stationType": "BIKE", "address": "387 - Cadiz-Empresa", "zipCode": "3920", "location": {"lat": 19.37455556, "lon": -99.180505555556}, "districtName": "Insurgentes Mixcoac", "name": "387 CADIZ-EMPRESA", "nearbyStations": [381, 382, 383], "id": 387}, {"addressNumber": "S/N", "districtCode": "INM", "altitude": null, "stationType": "BIKE", "address": "388 - Valencia-Malaga", "zipCode": "3920", "location": {"lat": 19.373038, "lon": -99.181355}, "districtName": "Insurgentes Mixcoac", "name": "388 VALENCIA-MALAGA", "nearbyStations": [387, 389, 390], "id": 388}, {"addressNumber": "S/N", "districtCode": "INM", "altitude": null, "stationType": "BIKE", "address": "389 - Santander-Felix Cuevas", "zipCode": "3920", "location": {"lat": 19.373528, "lon": -99.179356}, "districtName": "Insurgentes Mixcoac", "name": "389 SANTANDER-FELIX CUEVAS", "nearbyStations": [388, 390, 391], "id": 389}, {"addressNumber": "S/N", "districtCode": "ISB", "altitude": null, "stationType": "BIKE", "address": "345 - Miraflores-Patricio Sanz", "zipCode": "3100", "location": {"lat": 19.384498, "lon": -99.172223}, "districtName": "Insurgentes San Borja", "name": "345 MIRAFLORES-PATRICIO SANZ", "nearbyStations": [334, 335, 346], "id": 345}, {"addressNumber": "S/N", "districtCode": "ISB", "altitude": null, "stationType": "BIKE", "address": "346 - San Francisco-Santa Margarita", "zipCode": "3100", "location": {"lat": 19.385019, "lon": -99.174077}, "districtName": "Insurgentes San Borja", "name": "346 SAN FRANCISCO-SANTA MARGARITA", "nearbyStations": [334, 335, 345], "id": 346}, {"addressNumber": "S/N", "districtCode": "ISB", "altitude": null, "stationType": "BIKE", "address": "355 - California-Sacramento", "zipCode": "3100", "location": {"lat": 19.38205, "lon": -99.173291}, "districtName": "Insurgentes San Borja", "name": "355 CALIFORNIA-SACRAMENTO", "nearbyStations": [345, 361], "id": 355}, {"addressNumber": "S/N", "districtCode": "JUA", "altitude": null, "stationType": "BIKE", "address": "447 AGUST\u00cdN MELGAR-ZAMORA", "zipCode": null, "location": {"lat": 19.418858, "lon": -99.176776}, "districtName": "Ju\u00e1rez", "name": "447 AGUST\u00cdN MELGAR-ZAMORA", "nearbyStations": [447], "id": 447}, {"addressNumber": "S/N", "districtCode": "JUA", "altitude": null, "stationType": "BIKE", "address": "449 ACAPULCO-PUEBLA", "zipCode": null, "location": {"lat": 19.42018, "lon": -99.174393}, "districtName": "Ju\u00e1rez", "name": "449 ACAPULCO-PUEBLA", "nearbyStations": [449], "id": 449}, {"addressNumber": "S/N", "districtCode": "JUA", "altitude": null, "stationType": "BIKE", "address": "113 - General Prim-Versalles", "zipCode": "06500", "location": {"lat": 19.430369, "lon": -99.154419}, "districtName": "Ju\u00e1rez", "name": "113 GENERAL PRIM-VERSALLES", "nearbyStations": [114, 116], "id": 113}, {"addressNumber": "S/N", "districtCode": "JUA", "altitude": null, "stationType": "BIKE", "address": "114 - Lucerna-Abraham Gonz\u00e1lez", "zipCode": "06500", "location": {"lat": 19.428989, "lon": -99.153618}, "districtName": "Ju\u00e1rez", "name": "114 LUCERNA-ABRAHAM GONZALEZ ", "nearbyStations": [113, 116], "id": 114}, {"addressNumber": "S/N", "districtCode": "JUA", "altitude": null, "stationType": "BIKE", "address": "115 - Roma-Dinamarca", "zipCode": "06500", "location": {"lat": 19.429947, "lon": -99.159698}, "districtName": "Ju\u00e1rez", "name": "115 ROMA-DINAMARCA ", "nearbyStations": [116, 117, 118], "id": 115}, {"addressNumber": "S/N", "districtCode": "JUA", "altitude": null, "stationType": "BIKE", "address": "116 - Londres-Roma", "zipCode": "06500", "location": {"lat": 19.428985, "lon": -99.15664}, "districtName": "Ju\u00e1rez", "name": "116 LONDRES-ROMA", "nearbyStations": [115, 118, 199], "id": 116}, {"addressNumber": "S/N", "districtCode": "JUA", "altitude": null, "stationType": "BIKE", "address": "117 - Londres-Napoles", "zipCode": "06500", "location": {"lat": 19.427132, "lon": -99.160369}, "districtName": "Ju\u00e1rez", "name": "117 LONDRES-NAPOLES ", "nearbyStations": [116, 118, 120], "id": 117}, {"addressNumber": "S/N", "districtCode": "JUA", "altitude": null, "stationType": "BIKE", "address": "118 - Liverpool-Dinamarca", "zipCode": "06500", "location": {"lat": 19.427114, "lon": -99.158251}, "districtName": "Ju\u00e1rez", "name": "118 LIVERPOOL-DINAMARCA", "nearbyStations": [116, 117, 120], "id": 118}, {"addressNumber": "S/N", "districtCode": "JUA", "altitude": null, "stationType": "BIKE", "address": "119 - Tur\u00edn-Abraham Gonz\u00e1lez", "zipCode": null, "location": {"lat": 19.42679, "lon": -99.15554}, "districtName": "Ju\u00e1rez", "name": "119 TUR\u00cdN-ABRAHAM GONZ\u00c1LEZ", "nearbyStations": [114, 118], "id": 119}, {"addressNumber": "S/N", "districtCode": "JUA", "altitude": null, "stationType": "BIKE", "address": "120 - Marsella-N\u00e1poles", "zipCode": "06500", "location": {"lat": 19.425437, "lon": -99.159458}, "districtName": "Ju\u00e1rez", "name": "120 MARSELLA-NAPOLES", "nearbyStations": [117, 118, 121], "id": 120}, {"addressNumber": "S/N", "districtCode": "JUA", "altitude": null, "stationType": "BIKE", "address": "121 - Niza-Chapultepec", "zipCode": "06500", "location": {"lat": 19.424137, "lon": -99.161317}, "districtName": "Ju\u00e1rez", "name": "121 NIZA-CHAPULTEPEC", "nearbyStations": [117, 120], "id": 121}, {"addressNumber": "S/N", "districtCode": "JUA", "altitude": null, "stationType": "BIKE,TPV", "address": "030 - Hamburgo - Genova", "zipCode": "06500", "location": {"lat": 19.426442, "lon": -99.164323}, "districtName": "Ju\u00e1rez", "name": "30 HAMBURGO-GENOVA", "nearbyStations": [26, 34, 35], "id": 30}, {"addressNumber": "S/N", "districtCode": "JUA", "altitude": null, "stationType": "BIKE", "address": "031 - Hamburgo - Insurgentes", "zipCode": "06500", "location": {"lat": 19.427838, "lon": -99.161193}, "districtName": "Ju\u00e1rez", "name": "31 HAMBURGO-INSURGENTES", "nearbyStations": [19, 27, 30], "id": 31}, {"addressNumber": "S/N", "districtCode": "JUA", "altitude": null, "stationType": "BIKE", "address": "032 - Londres - Sevilla", "zipCode": "06500", "location": {"lat": 19.422705, "lon": -99.169922}, "districtName": "Ju\u00e1rez", "name": "32 LONDRES-SEVILLA", "nearbyStations": [22, 38, 39], "id": 32}, {"addressNumber": "S/N", "districtCode": "JUA", "altitude": null, "stationType": "BIKE", "address": "033 - Londres - Florencia", "zipCode": "06500", "location": {"lat": 19.424234, "lon": -99.166431}, "districtName": "Ju\u00e1rez", "name": "33 LONDRES-FLORENCIA", "nearbyStations": [29, 39, 40], "id": 33}, {"addressNumber": "S/N", "districtCode": "JUA", "altitude": null, "stationType": "BIKE", "address": "034 - Liverpool - Genova", "zipCode": "05600", "location": {"lat": 19.424539, "lon": -99.163503}, "districtName": "Ju\u00e1rez", "name": "34 LIVERPOOL-GENOVA", "nearbyStations": [30, 33, 35], "id": 34}, {"addressNumber": "S/N", "districtCode": "JUA", "altitude": null, "stationType": "BIKE,TPV", "address": "035 - Liverpool - Genova", "zipCode": "06500", "location": {"lat": 19.424572, "lon": -99.163123}, "districtName": "Ju\u00e1rez", "name": "35 LIVERPOOL-GENOVA", "nearbyStations": [30, 34, 40], "id": 35}, {"addressNumber": "S/N", "districtCode": "JUA", "altitude": null, "stationType": "BIKE,TPV", "address": "022 - Reforma - Manchester", "zipCode": "06500", "location": {"lat": 19.424375, "lon": -99.172575}, "districtName": "Ju\u00e1rez", "name": "22 REFORMA-MANCHESTER", "nearbyStations": [14, 15, 23, 28], "id": 22}, {"addressNumber": "S/N", "districtCode": "JUA", "altitude": null, "stationType": "BIKE", "address": "023 - Reforma - Praga", "zipCode": "06500", "location": {"lat": 19.425483, "lon": -99.170414}, "districtName": "Ju\u00e1rez", "name": "23 REFORMA-PRAGA", "nearbyStations": [15, 16, 22], "id": 23}, {"addressNumber": "S/N", "districtCode": "JUA", "altitude": null, "stationType": "BIKE,TPV", "address": "024 - Reforma- Varsovia", "zipCode": "06500", "location": {"lat": 19.426102, "lon": -99.168992}, "districtName": "Ju\u00e1rez", "name": "24 REFORMA-VARSOVIA", "nearbyStations": [16, 23], "id": 24}, {"addressNumber": "S/N", "districtCode": "JUA", "altitude": null, "stationType": "BIKE", "address": "025 - Reforma - Estocolmo", "zipCode": "06500", "location": {"lat": 19.426944, "lon": -99.166946}, "districtName": "Ju\u00e1rez", "name": "25 REFORMA-ESTOCOLMO", "nearbyStations": [17, 18], "id": 25}, {"addressNumber": "S/N", "districtCode": "JUA", "altitude": null, "stationType": "BIKE,TPV", "address": "026 - Reforma - Versalles", "zipCode": "06500", "location": {"lat": 19.432685, "lon": -99.154726}, "districtName": "Ju\u00e1rez", "name": "26 REFORMA-VERSALLES", "nearbyStations": [10], "id": 26}, {"addressNumber": "S/N", "districtCode": "JUA", "altitude": null, "stationType": "BIKE,TPV", "address": "027 - Reforma- Havre", "zipCode": "06500", "location": {"lat": 19.429115, "lon": -99.162614}, "districtName": "Ju\u00e1rez", "name": "27 REFORMA-HAVRE", "nearbyStations": [19, 26, 31], "id": 27}, {"addressNumber": "S/N", "districtCode": "JUA", "altitude": null, "stationType": "BIKE", "address": "028 - Toledo- Tokio", "zipCode": "06500", "location": {"lat": 19.423542, "lon": -99.172494}, "districtName": "Ju\u00e1rez", "name": "28 TOLEDO-TOKIO", "nearbyStations": [14, 21, 22], "id": 28}, {"addressNumber": "S/N", "districtCode": "LEV", "altitude": null, "stationType": "BIKE", "address": "404 - Miguel Laurent-Avenida Divisi\u00f3n Del Norte", "zipCode": "3650", "location": {"lat": 19.373813, "lon": -99.157387}, "districtName": "Letran Valle", "name": "404 MIGUEL LAURENT-AVENIDA DIVISI\u00d3N DEL NORTE", "nearbyStations": [402, 403, 405], "id": 404}, {"addressNumber": "S/N", "districtCode": "LEV", "altitude": null, "stationType": "BIKE", "address": "375 - Tenayuca-Divisi\u00f3n Del Norte", "zipCode": "3650", "location": {"lat": 19.376865, "lon": -99.158818}, "districtName": "Letran Valle", "name": "375 TENAYUCA-DIVISI\u00d3N DEL NORTE", "nearbyStations": [359, 374, 376], "id": 375}, {"addressNumber": "S/N", "districtCode": "LEV", "altitude": null, "stationType": "BIKE", "address": "376 - Pit\u00e1goras-Av. Universidad", "zipCode": "3650", "location": {"lat": 19.375442, "lon": -99.161595}, "districtName": "Letran Valle", "name": "376 PIT\u00c1GORAS-AV. UNIVERSIDAD", "nearbyStations": [374, 375, 377], "id": 376}, {"addressNumber": "S/N", "districtCode": "NAP", "altitude": null, "stationType": "BIKE", "address": "333 - Georgia -Carolina", "zipCode": "3810", "location": {"lat": 19.387624, "lon": -99.180978}, "districtName": "N\u00e1poles", "name": "333 GEORGIA -CAROLINA", "nearbyStations": [330, 332, 349], "id": 333}, {"addressNumber": "S/N", "districtCode": "NAP", "altitude": null, "stationType": "BIKE", "address": "284 - Dakota-Vermont", "zipCode": "3810", "location": {"lat": 19.397693, "lon": -99.172981}, "districtName": "N\u00e1poles", "name": "284 DAKOTA-VERMONT", "nearbyStations": [289, 290, 291], "id": 284}, {"addressNumber": "S/N", "districtCode": "NAP", "altitude": null, "stationType": "BIKE,TPV", "address": "303 - Montesito-Av. Insurgentes", "zipCode": "3810", "location": {"lat": 19.394842, "lon": -99.173025}, "districtName": "N\u00e1poles", "name": "303 MONTESITO-AV. INSURGENTES", "nearbyStations": [301, 302, 304], "id": 303}, {"addressNumber": "S/N", "districtCode": "NAP", "altitude": null, "stationType": "BIKE", "address": "304 - Montesito-Dakota", "zipCode": "3810", "location": {"lat": 19.395043, "lon": -99.173821}, "districtName": "N\u00e1poles", "name": "304 MONTESITO-DAKOTA", "nearbyStations": [290, 303, 305], "id": 304}, {"addressNumber": "S/N", "districtCode": "NAP", "altitude": null, "stationType": "BIKE", "address": "309 - Pennsylvania-Arizona", "zipCode": "3810", "location": {"lat": 19.393162, "lon": -99.17956}, "districtName": "N\u00e1poles", "name": "309 PENNSYLVANIA-ARIZONA", "nearbyStations": [308, 310, 313], "id": 309}, {"addressNumber": "S/N", "districtCode": "NAP", "altitude": null, "stationType": "BIKE,TPV", "address": "306 - Dakota-Filadelfia", "zipCode": "3810", "location": {"lat": 19.393699, "lon": -99.175664}, "districtName": "N\u00e1poles", "name": "306 DAKOTA-FILADELFIA", "nearbyStations": [305, 307, 308], "id": 306}, {"addressNumber": "S/N", "districtCode": "NAP", "altitude": null, "stationType": "BIKE", "address": "307 - Minesota-Dakota", "zipCode": "3810", "location": {"lat": 19.393701, "lon": -99.175834}, "districtName": "N\u00e1poles", "name": "307 MINESOTA-DAKOTA", "nearbyStations": [305, 306, 308], "id": 307}, {"addressNumber": "S/N", "districtCode": "NAP", "altitude": null, "stationType": "BIKE", "address": "289 - Chicago-Yosemite", "zipCode": "3810", "location": {"lat": 19.397308, "lon": -99.174548}, "districtName": "N\u00e1poles", "name": "289 CHICAGO-YOSEMITE", "nearbyStations": [284, 290, 304], "id": 289}, {"addressNumber": "S/N", "districtCode": "NAP", "altitude": null, "stationType": "BIKE", "address": "290 - Yosemite-Colorado", "zipCode": "3810", "location": {"lat": 19.396333, "lon": -99.172667}, "districtName": "N\u00e1poles", "name": "290 YOSEMITE-COLORADO", "nearbyStations": [284, 289, 303], "id": 290}, {"addressNumber": "S/N", "districtCode": "NAP", "altitude": null, "stationType": "BIKE", "address": "314 - Nuerva York-Louisiana", "zipCode": "3810", "location": {"lat": 19.391647, "lon": -99.177331}, "districtName": "N\u00e1poles", "name": "314 NUERVA YORK-LOUISIANA", "nearbyStations": [307, 313, 327], "id": 314}, {"addressNumber": "S/N", "districtCode": "NAP", "altitude": null, "stationType": "BIKE", "address": "315 - Alabama-Montana", "zipCode": "3810", "location": {"lat": 19.391472, "lon": -99.1736}, "districtName": "N\u00e1poles", "name": "315 ALABAMA-MONTANA", "nearbyStations": [301, 302, 316], "id": 315}, {"addressNumber": "S/N", "districtCode": "NAP", "altitude": null, "stationType": "BIKE", "address": "327 - Georgia -Pennsylvania", "zipCode": "3810", "location": {"lat": 19.38885, "lon": -99.17772}, "districtName": "N\u00e1poles", "name": "327 GEORGIA -PENNSYLVANIA", "nearbyStations": [313, 314, 326], "id": 327}, {"addressNumber": "S/N", "districtCode": "NAR", "altitude": null, "stationType": "BIKE", "address": "320 - Enrique R\u00e9bsamen-Luz Savi\u00f1on", "zipCode": "3020", "location": {"lat": 19.391323, "lon": -99.15936}, "districtName": "Narvarte Poniente", "name": "320 ENRIQUE R\u00c9BSAMEN-LUZ SAVI\u00d1ON", "nearbyStations": [296, 297, 319], "id": 320}, {"addressNumber": "S/N", "districtCode": "NAR", "altitude": null, "stationType": "BIKE", "address": "294 - Nicol\u00e1s San Juan-Eje 4 Sur Xola", "zipCode": "3020", "location": {"lat": 19.396513, "lon": -99.160924}, "districtName": "Narvarte Poniente", "name": "294 NICOL\u00c1S SAN JUAN-EJE 4 SUR XOLA", "nearbyStations": [282, 295, 298], "id": 294}, {"addressNumber": "S/N", "districtCode": "NAR", "altitude": null, "stationType": "BIKE,TPV", "address": "295 - Anax\u00e1goras-Eje 4 Sur Xola", "zipCode": "3020", "location": {"lat": 19.396328, "lon": -99.156871}, "districtName": "Narvarte Poniente", "name": "295 ANAX\u00c1GORAS-EJE 4 SUR XOLA", "nearbyStations": [281, 296, 297], "id": 295}, {"addressNumber": "S/N", "districtCode": "NAR", "altitude": null, "stationType": "BIKE", "address": "296 - Diagonal San Antonio-Enrique R\u00e9bsamen", "zipCode": "3020", "location": {"lat": 19.394283, "lon": -99.158756}, "districtName": "Narvarte Poniente", "name": "296 DIAGONAL SAN ANTONIO-ENRIQUE R\u00c9BSAMEN", "nearbyStations": [295, 297, 320], "id": 296}, {"addressNumber": "S/N", "districtCode": "NAR", "altitude": null, "stationType": "BIKE", "address": "297 - Diagonal San Antonio-Enrique R\u00e9bsamen", "zipCode": "3020", "location": {"lat": 19.394412, "lon": -99.158907}, "districtName": "Narvarte Poniente", "name": "297 DIAGONAL SAN ANTONIO-ENRIQUE R\u00c9BSAMEN", "nearbyStations": [295, 296, 320], "id": 297}, {"addressNumber": "S/N", "districtCode": "NAR", "altitude": null, "stationType": "BIKE,TPV", "address": "280 - Anax\u00e1goras-Obrero Mundial", "zipCode": "3020", "location": {"lat": 19.4015, "lon": -99.156406}, "districtName": "Narvarte Poniente", "name": "280 ANAX\u00c1GORAS-OBRERO MUNDIAL", "nearbyStations": [276, 277, 281], "id": 280}, {"addressNumber": "S/N", "districtCode": "NAR", "altitude": null, "stationType": "BIKE", "address": "281 - Pit\u00e1goras-La Morena", "zipCode": "3020", "location": {"lat": 19.398532, "lon": -99.157308}, "districtName": "Narvarte Poniente", "name": "281 PIT\u00c1GORAS-LA MORENA", "nearbyStations": [276, 280, 295], "id": 281}, {"addressNumber": "S/N", "districtCode": "NAR", "altitude": null, "stationType": "BIKE", "address": "276 - Anax\u00e1goras-Obrero Mundial", "zipCode": "3020", "location": {"lat": 19.401986, "lon": -99.156366}, "districtName": "Narvarte Poniente", "name": "276 ANAX\u00c1GORAS-OBRERO MUNDIAL", "nearbyStations": [277, 280, 281], "id": 276}, {"addressNumber": "S/N", "districtCode": "NAR", "altitude": null, "stationType": "BIKE", "address": "339 - Enrique R\u00e9bsamen-Avenida Eugenia", "zipCode": "3020", "location": {"lat": 19.386032, "lon": -99.160548}, "districtName": "Narvarte Poniente", "name": "339 ENRIQUE R\u00c9BSAMEN-AVENIDA EUGENIA", "nearbyStations": [322, 340, 343], "id": 339}, {"addressNumber": "S/N", "districtCode": "NAR", "altitude": null, "stationType": "BIKE,TPV", "address": "340 - Anax\u00e1goras-Avenida Eugenia", "zipCode": "3020", "location": {"lat": 19.385571, "lon": -99.158188}, "districtName": "Narvarte Poniente", "name": "340 ANAX\u00c1GORAS-AVENIDA EUGENIA", "nearbyStations": [339, 341, 343], "id": 340}, {"addressNumber": "S/N", "districtCode": "NAR", "altitude": null, "stationType": "BIKE", "address": "341 - San Borja-Avenida Cuauhtemoc", "zipCode": "3020", "location": {"lat": 19.382851, "lon": -99.158204}, "districtName": "Narvarte Poniente", "name": "341 SAN BORJA-AVENIDA CUAUHTEMOC", "nearbyStations": [340, 343, 364], "id": 341}, {"addressNumber": "S/N", "districtCode": "NAR", "altitude": null, "stationType": "BIKE", "address": "342 - Anax\u00e1goras-Angel Urraza Eje 6 Sur", "zipCode": "3020", "location": {"lat": 19.381076, "lon": -99.159455}, "districtName": "Narvarte Poniente", "name": "342 ANAX\u00c1GORAS-ANGEL URRAZA EJE 6 SUR", "nearbyStations": [341, 344, 359], "id": 342}, {"addressNumber": "S/N", "districtCode": "NBU", "altitude": null, "stationType": "BIKE", "address": "367 - Boston -Augusto Rod\u00edn", "zipCode": "3720", "location": {"lat": 19.37946, "lon": -99.181632}, "districtName": "Noche Buena", "name": "367 BOSTON -AUGUSTO ROD\u00cdN", "nearbyStations": [362, 363, 366], "id": 367}, {"addressNumber": "S/N", "districtCode": "NBU", "altitude": null, "stationType": "BIKE", "address": "354 - Boston-Av. Insurgentes", "zipCode": "3720", "location": {"lat": 19.381665, "lon": -99.176685}, "districtName": "Noche Buena", "name": "354 BOSTON-AV. INSURGENTES", "nearbyStations": [353, 361, 369], "id": 354}, {"addressNumber": "S/N", "districtCode": "POL", "altitude": null, "stationType": "BIKE", "address": "451 CAMPOS EL\u00cdSEOS-GOLDSMITH", "zipCode": null, "location": {"lat": 19.42902, "lon": -99.201322}, "districtName": "Polanco", "name": "451 CAMPOS EL\u00cdSEOS-GOLDSMITH", "nearbyStations": [451], "id": 451}, {"addressNumber": "S/N", "districtCode": "POL", "altitude": null, "stationType": "BIKE,TPV", "address": "233 - Julio Verne-Luis G. Urbina", "zipCode": "11510", "location": {"lat": 19.429314, "lon": -99.196965}, "districtName": "Polanco", "name": "233 JULIO VERNE-LUIS G. URBINA ", "nearbyStations": [222, 230, 231], "id": 233}, {"addressNumber": "S/N", "districtCode": "POL", "altitude": null, "stationType": "BIKE", "address": "239 - Rincon del Bosque-Ruben Dario", "zipCode": "11510", "location": {"lat": 19.430153, "lon": -99.181355}, "districtName": "Polanco", "name": "239 RINCON DEL BOSQUE-RUBEN DAR\u00cdO ", "nearbyStations": [226, 247, 250], "id": 239}, {"addressNumber": "S/N", "districtCode": "POL", "altitude": null, "stationType": "BIKE,TPV", "address": "204- Ejercito Nacional-F.C. de Cuernavaca", "zipCode": null, "location": {"lat": 19.43855, "lon": -99.2063}, "districtName": "Polanco", "name": "240 EJERCITO NACIONAL-F.C. DE CUERNAVACA ", "nearbyStations": [198, 241], "id": 240}, {"addressNumber": "S/N", "districtCode": "POL", "altitude": null, "stationType": "BIKE", "address": "241 - Ejercito Nacional-Juan Vazquez de la Mella", "zipCode": null, "location": {"lat": 19.43862, "lon": -99.20758}, "districtName": "Polanco", "name": "241 EJERCITO NAL-JUAN VAZQUEZ DE LA MELLA ", "nearbyStations": [198, 240], "id": 241}, {"addressNumber": "S/N", "districtCode": "POL", "altitude": null, "stationType": "BIKE", "address": "235 - Campos Eliseos-Moliere", "zipCode": null, "location": {"lat": 19.42933, "lon": -99.20218}, "districtName": "Polanco", "name": "235 CAMPOS ELISEOS-MOLIERE ", "nearbyStations": [229, 230, 236], "id": 235}, {"addressNumber": "S/N", "districtCode": "POL", "altitude": null, "stationType": "BIKE", "address": "236 - Campos Eliseos-Moliere", "zipCode": null, "location": {"lat": 19.42944, "lon": -99.20243}, "districtName": "Polanco", "name": "236 CAMPOS ELISEOS-MOLIERE ", "nearbyStations": [229, 230, 235], "id": 236}, {"addressNumber": "S/N", "districtCode": "POL", "altitude": null, "stationType": "BIKE", "address": "196 - Lago Tanganica- Av. Ej\u00e9rcito Nacional", "zipCode": "11510", "location": {"lat": 19.438349, "lon": -99.192904}, "districtName": "Polanco", "name": "196 LAGO TANGANICA-AV. EJERCITO NACIONAL", "nearbyStations": [204, 244, 245], "id": 196}, {"addressNumber": "S/N", "districtCode": "POL", "altitude": null, "stationType": "BIKE,TPV", "address": "228 - Campos El\u00edseos-Jean de La fontaine", "zipCode": "11510", "location": {"lat": 19.427705, "lon": -99.19912}, "districtName": "Polanco", "name": "228 CAMPOS EL\u00cdSEOS-JEAN DE LA FONTAINE", "nearbyStations": [230, 233, 235], "id": 228}, {"addressNumber": "S/N", "districtCode": "POL", "altitude": null, "stationType": "BIKE", "address": "229 - Dickens-Seneca", "zipCode": "11510", "location": {"lat": 19.430515, "lon": -99.203331}, "districtName": "Polanco", "name": "229 DICKENS-SENECA", "nearbyStations": [221, 235, 236], "id": 229}, {"addressNumber": "S/N", "districtCode": "POL", "altitude": null, "stationType": "BIKE", "address": "230 - Edgar Alan Poe-Dickens", "zipCode": "11510", "location": {"lat": 19.430098, "lon": -99.200074}, "districtName": "Polanco", "name": "230 EDGAR ALAN POE-DICKENS", "nearbyStations": [221, 235, 236], "id": 230}, {"addressNumber": "S/N", "districtCode": "POL", "altitude": null, "stationType": "BIKE", "address": "231 - Newton-Aristoteles", "zipCode": "11510", "location": {"lat": 19.42977, "lon": -99.19349}, "districtName": "Polanco", "name": "231 NEWTON-ARISTOTELES ", "nearbyStations": [222, 223, 234], "id": 231}, {"addressNumber": "S/N", "districtCode": "POL", "altitude": null, "stationType": "BIKE,TPV", "address": "198 - S\u00f3crates-Ejercito Nacional", "zipCode": null, "location": {"lat": 19.438168, "lon": -99.203888}, "districtName": "Polanco", "name": "198 S\u00d3CRATES-EJERCITO NACIONAL ", "nearbyStations": [240, 241], "id": 198}, {"addressNumber": "S/N", "districtCode": "POL", "altitude": null, "stationType": "BIKE", "address": "199 - Anatole France-Av. Ej\u00e9rcito Nacional", "zipCode": "11510", "location": {"lat": 19.437934, "lon": -99.197241}, "districtName": "Polanco", "name": "199 ANATOLE FRANCE-AV. EJERCITO NACIONAL", "nearbyStations": [196, 202, 203], "id": 199}, {"addressNumber": "S/N", "districtCode": "POL", "altitude": null, "stationType": "BIKE", "address": "200 - Emerson-Av. Ej\u00e9rcito Nacional", "zipCode": "11510", "location": {"lat": 19.437596, "lon": -99.188785}, "districtName": "Polanco", "name": "200 EMERSON-AV. EJERCITO NACIONAL", "nearbyStations": [201, 204, 245], "id": 200}, {"addressNumber": "S/N", "districtCode": "POL", "altitude": null, "stationType": "BIKE", "address": "201 - Lope de Vega-Ej\u00e9rcito Nacional", "zipCode": "11510", "location": {"lat": 19.437431, "lon": -99.187215}, "districtName": "Polanco", "name": "201 LOPE DE VEGA-EJERCITO NACIONAL ", "nearbyStations": [200, 205, 245], "id": 201}, {"addressNumber": "S/N", "districtCode": "POL", "altitude": null, "stationType": "BIKE", "address": "202 - Calder\u00f3n de la Barca-Av. Homero", "zipCode": "11510", "location": {"lat": 19.43617, "lon": -99.198943}, "districtName": "Polanco", "name": "202 CALDERON DE LA BARCA-AV. HOMERO", "nearbyStations": [199, 206, 215], "id": 202}, {"addressNumber": "S/N", "districtCode": "POL", "altitude": null, "stationType": "BIKE", "address": "203 - Tennyson-Av. Homero", "zipCode": "11510", "location": {"lat": 19.435985, "lon": -99.194832}, "districtName": "Polanco", "name": "203 TENNYSON-AV. HOMERO", "nearbyStations": [196, 204, 210], "id": 203}, {"addressNumber": "S/N", "districtCode": "POL", "altitude": null, "stationType": "BIKE", "address": "205 - Taine-Homero", "zipCode": "11510", "location": {"lat": 19.435525, "lon": -99.184713}, "districtName": "Polanco", "name": "205 TAINE-HOMERO", "nearbyStations": [201, 207, 217], "id": 205}, {"addressNumber": "S/N", "districtCode": "POL", "altitude": null, "stationType": "BIKE,TPV", "address": "206 - Moliere-Homero", "zipCode": null, "location": {"lat": 19.435798, "lon": -99.201419}, "districtName": "Polanco", "name": "206 MOLIERE-HOMERO ", "nearbyStations": [202, 214, 215], "id": 206}, {"addressNumber": "S/N", "districtCode": "POL", "altitude": null, "stationType": "BIKE", "address": "207 - Tasso-Homero", "zipCode": "11510", "location": {"lat": 19.434861, "lon": -99.183322}, "districtName": "Polanco", "name": "207 TASSO-HOMERO ", "nearbyStations": [205, 217, 226], "id": 207}, {"addressNumber": "S/N", "districtCode": "POL", "altitude": null, "stationType": "BIKE", "address": "208 - Hesiodo-Lamartine", "zipCode": "11510", "location": {"lat": 19.434182, "lon": -99.189835}, "districtName": "Polanco", "name": "208 HESIODO-LAMARTINE ", "nearbyStations": [211, 212, 218], "id": 208}, {"addressNumber": "S/N", "districtCode": "POL", "altitude": null, "stationType": "BIKE", "address": "209 - Sol\u00f3n-Horacio", "zipCode": "11510", "location": {"lat": 19.435478, "lon": -99.206359}, "districtName": "Polanco", "name": "209 SOLON-HORACIO ", "nearbyStations": [213, 214, 219], "id": 209}, {"addressNumber": "S/N", "districtCode": "POL", "altitude": null, "stationType": "BIKE", "address": "210 Eugenio Sue-Horacio", "zipCode": null, "location": {"lat": 19.434076, "lon": -99.194091}, "districtName": "Polanco", "name": "210 EUGENIO SUE-HORACIO ", "nearbyStations": [203, 204, 216], "id": 210}, {"addressNumber": "S/N", "districtCode": "POL", "altitude": null, "stationType": "BIKE", "address": "211 - Newton-Horacio", "zipCode": "11510", "location": {"lat": 19.433607, "lon": -99.188528}, "districtName": "Polanco", "name": "211 NEWTON-HORACIO", "nearbyStations": [208, 212, 218], "id": 211}, {"addressNumber": "S/N", "districtCode": "POL", "altitude": null, "stationType": "BIKE,TPV", "address": "212 - Hegel-Horacio", "zipCode": "11510", "location": {"lat": 19.433567, "lon": -99.188096}, "districtName": "Polanco", "name": "212 HEGEL-HORACIO ", "nearbyStations": [211, 218, 224], "id": 212}, {"addressNumber": "S/N", "districtCode": "POL", "altitude": null, "stationType": "BIKE", "address": "213 - Horacio-FC Cuernavaca", "zipCode": "11510", "location": {"lat": 19.435197, "lon": -99.206967}, "districtName": "Polanco", "name": "213 HORACIO-FC CUERNAVACA", "nearbyStations": [209, 214, 219], "id": 213}, {"addressNumber": "S/N", "districtCode": "POL", "altitude": null, "stationType": "BIKE", "address": "214 - Plat\u00f3n-Horacio", "zipCode": null, "location": {"lat": 19.434353, "lon": -99.20322}, "districtName": "Polanco", "name": "214 PLAT\u00d3N-HORACIO", "nearbyStations": [206, 209, 215], "id": 214}, {"addressNumber": "S/N", "districtCode": "POL", "altitude": null, "stationType": "BIKE", "address": "215 - Edgar Alan Poe-Horacio", "zipCode": "11510", "location": {"lat": 19.43384, "lon": -99.19968}, "districtName": "Polanco", "name": "215 EDGAR ALAN POE-HORACIO", "nearbyStations": [206, 214, 221], "id": 215}, {"addressNumber": "S/N", "districtCode": "POL", "altitude": null, "stationType": "BIKE,TPV", "address": "216 - Alejandro Dumas-Horacio", "zipCode": "11510", "location": {"lat": 19.433419, "lon": -99.195746}, "districtName": "Polanco", "name": "216 ALEJANDRO DUMAS-HORACIO ", "nearbyStations": [210, 222], "id": 216}, {"addressNumber": "S/N", "districtCode": "POL", "altitude": null, "stationType": "BIKE,TPV", "address": "217 - Euler-Horacio", "zipCode": "11510", "location": {"lat": 19.432888, "lon": -99.183605}, "districtName": "Polanco", "name": "217 EULER-AV. HORACIO ", "nearbyStations": [207, 225, 226], "id": 217}, {"addressNumber": "S/N", "districtCode": "POL", "altitude": null, "stationType": "BIKE", "address": "218 - Hegel-Ibarbourou", "zipCode": "11510", "location": {"lat": 19.432451, "lon": -99.188033}, "districtName": "Polanco", "name": "218 HEGEL-IBARBOUROU ", "nearbyStations": [211, 212, 224], "id": 218}, {"addressNumber": "S/N", "districtCode": "POL", "altitude": null, "stationType": "BIKE", "address": "219 - Esopo-FC de Cuernavaca", "zipCode": "11510", "location": {"lat": 19.433542, "lon": -99.207808}, "districtName": "Polanco", "name": "219 ESOPO-FC DE CUERNAVACA", "nearbyStations": [213, 220, 227], "id": 219}, {"addressNumber": "S/N", "districtCode": "POL", "altitude": null, "stationType": "BIKE", "address": "220 - Plino-Presidente Masaryk", "zipCode": "11510", "location": {"lat": 19.432655, "lon": -99.205727}, "districtName": "Polanco", "name": "220 PLINIO-PRESIDENTE MASARYK ", "nearbyStations": [213, 219, 227], "id": 220}, {"addressNumber": "S/N", "districtCode": "POL", "altitude": null, "stationType": "BIKE,TPV", "address": "221 - Emilio Castelar-Presidente Masaryk", "zipCode": "11510", "location": {"lat": 19.431799, "lon": -99.201565}, "districtName": "Polanco", "name": "221 EMILIO CASTELAR-PRESIDENTE MASARYK ", "nearbyStations": [215, 230, 231], "id": 221}, {"addressNumber": "S/N", "districtCode": "POL", "altitude": null, "stationType": "BIKE", "address": "222 - Alejandro Dumas-Presidente Masarik", "zipCode": "11510", "location": {"lat": 19.431417, "lon": -99.195774}, "districtName": "Polanco", "name": "222 ALEJANDRO DUMAS-PRESIDENTE MASARYK", "nearbyStations": [216, 231, 233], "id": 222}, {"addressNumber": "S/N", "districtCode": "POL", "altitude": null, "stationType": "BIKE,TPV", "address": "223 - Newton-Presidente Masarik", "zipCode": null, "location": {"lat": 19.431242, "lon": -99.191613}, "districtName": "Polanco", "name": "223 NEWTON-PRESIDENTE MASARYK ", "nearbyStations": [222, 224, 231], "id": 223}, {"addressNumber": "S/N", "districtCode": "POL", "altitude": null, "stationType": "BIKE", "address": "224 - Hegel-Presidente Masaryk", "zipCode": "11510", "location": {"lat": 19.431255, "lon": -99.188065}, "districtName": "Polanco", "name": "224 HEGEL-PRESIDENTE MASARYK", "nearbyStations": [212, 218, 225], "id": 224}, {"addressNumber": "S/N", "districtCode": "POL", "altitude": null, "stationType": "BIKE", "address": "225 - Petrarca-Presidente Masaryk", "zipCode": "11510", "location": {"lat": 19.431172, "lon": -99.185612}, "districtName": "Polanco", "name": "225 PETRARCA-PRESIDENTE MASARYK", "nearbyStations": [224, 226, 232], "id": 225}, {"addressNumber": "S/N", "districtCode": "POL", "altitude": null, "stationType": "BIKE", "address": "226 - Wallon-Presidente Masaryk", "zipCode": "11511", "location": {"lat": 19.431033, "lon": -99.18222}, "districtName": "Polanco", "name": "226 WALLON-PRESIDENTE MASARYK", "nearbyStations": [217, 239, 247], "id": 226}, {"addressNumber": "S/N", "districtCode": "PON", "altitude": null, "stationType": "BIKE", "address": "405 - Divisi\u00f3n Del Norte-Municipio Libre", "zipCode": "3303", "location": {"lat": 19.370619, "lon": -99.156626}, "districtName": "Portales Norte", "name": "405 DIVISI\u00d3N DEL NORTE-MUNICIPIO LIBRE", "nearbyStations": [402, 403, 404], "id": 405}, {"addressNumber": "S/N", "districtCode": "REE", "altitude": null, "stationType": "BIKE", "address": "407 - Prolongaci\u00f3n Xochicalco-General Emiliano Zapat", "zipCode": "3320", "location": {"lat": 19.367294, "lon": -99.158694}, "districtName": "Residencial Emperadores", "name": "407 PROL. XOCHICALCO-GENERAL EMILIANO ZAPATA", "nearbyStations": [406, 408, 410], "id": 407}, {"addressNumber": "S/N", "districtCode": "REE", "altitude": null, "stationType": "BIKE", "address": "408 - Prolongaci\u00f3n Pet\u00e9n-General Emiliano Zapata", "zipCode": "3320", "location": {"lat": 19.36677, "lon": -99.156843}, "districtName": "Residencial Emperadores", "name": "408 PROLONGACI\u00d3N PET\u00c9N-GENERAL EMILIANO ZAPATA", "nearbyStations": [407, 409, 410], "id": 408}, {"addressNumber": "S/N", "districtCode": "R-N", "altitude": null, "stationType": "BIKE", "address": "037 - Guadalajara - Puebla", "zipCode": "06700", "location": {"lat": 19.420419, "lon": -99.172676}, "districtName": "Roma Norte", "name": "37 GUADALAJARA-PUEBLA", "nearbyStations": [28, 38, 45], "id": 37}, {"addressNumber": "S/N", "districtCode": "R-N", "altitude": null, "stationType": "BIKE", "address": "038 - Cozumel - PUEBLA", "zipCode": "06700", "location": {"lat": 19.420801, "lon": -99.171407}, "districtName": "Roma Norte", "name": "38 COZUMEL-PUEBLA", "nearbyStations": [28, 32, 37], "id": 38}, {"addressNumber": "S/N", "districtCode": "R-N", "altitude": null, "stationType": "BIKE", "address": "039 - Medellin - Chapultepec", "zipCode": "06700", "location": {"lat": 19.422484, "lon": -99.167153}, "districtName": "Roma Norte", "name": "39 MEDELLIN-CHAPULTEPEC", "nearbyStations": [33, 42, 48], "id": 39}, {"addressNumber": "S/N", "districtCode": "R-N", "altitude": null, "stationType": "BIKE", "address": "040 - Oaxaca - Puebla", "zipCode": "06700", "location": {"lat": 19.42223, "lon": -99.164297}, "districtName": "Roma Norte", "name": "40 OAXACA-PUEBLA", "nearbyStations": [35, 42], "id": 40}, {"addressNumber": "S/N", "districtCode": "R-N", "altitude": null, "stationType": "BIKE", "address": "056 - Alvaro Obreg\u00f3n - Medellin", "zipCode": "06700", "location": {"lat": 19.416959, "lon": -99.165702}, "districtName": "Roma Norte", "name": "56 ALVARO OBREGON-MEDELLIN", "nearbyStations": [47, 51, 55], "id": 56}, {"addressNumber": "S/N", "districtCode": "R-N", "altitude": null, "stationType": "BIKE", "address": "042 - Sinaloa - Valladolid", "zipCode": "06700", "location": {"lat": 19.420472, "lon": -99.168238}, "districtName": "Roma Norte", "name": "42 SINALOA-VALLADOLID", "nearbyStations": [39, 47, 48, 51], "id": 42}, {"addressNumber": "S/N", "districtCode": "R-N", "altitude": null, "stationType": "BIKE", "address": "051 - Colima - Oaxaca", "zipCode": "06700", "location": {"lat": 19.417995, "lon": -99.168248}, "districtName": "Roma Norte", "name": "51 COLIMA-OAXACA", "nearbyStations": [46, 47, 55, 58], "id": 51}, {"addressNumber": "S/N", "districtCode": "R-N", "altitude": null, "stationType": "BIKE", "address": "044 - Durango - Veracruz", "zipCode": "06140", "location": {"lat": 19.418057, "lon": -99.174761}, "districtName": "Roma Norte", "name": "44 DURANGO-VERACRUZ", "nearbyStations": [36, 41, 49, 50], "id": 44}, {"addressNumber": "S/N", "districtCode": "R-N", "altitude": null, "stationType": "BIKE,TPV", "address": "045 - Durango - Sonora", "zipCode": "06700", "location": {"lat": 19.418649, "lon": -99.172127}, "districtName": "Roma Norte", "name": "45 DURANGO-SONORA", "nearbyStations": [37, 38, 41, 46], "id": 45}, {"addressNumber": "S/N", "districtCode": "R-N", "altitude": null, "stationType": "BIKE", "address": "046 - Durango - Salamanca", "zipCode": "06700", "location": {"lat": 19.419214, "lon": -99.169732}, "districtName": "Roma Norte", "name": "46 DURANGO-SALAMANCA", "nearbyStations": [42, 45, 51, 54], "id": 46}, {"addressNumber": "S/N", "districtCode": "R-N", "altitude": null, "stationType": "BIKE", "address": "125 - Morelia-Circular de Morelia", "zipCode": "06500", "location": {"lat": 19.424541, "lon": -99.156204}, "districtName": "Roma Norte", "name": "125 MORELIA-CIRCULAR DE MORELIA", "nearbyStations": [123, 127], "id": 125}, {"addressNumber": "S/N", "districtCode": "R-N", "altitude": null, "stationType": "BIKE", "address": "126 - Jalapa-Puebla", "zipCode": null, "location": {"lat": 19.422288, "lon": -99.162138}, "districtName": "Roma Norte", "name": "126 JALAPA-PUEBLA", "nearbyStations": [121, 129], "id": 126}, {"addressNumber": "S/N", "districtCode": "R-N", "altitude": null, "stationType": "BIKE", "address": "127 -  Puebla-Merida", "zipCode": null, "location": {"lat": 19.423318, "lon": -99.15833}, "districtName": "Roma Norte", "name": "127 PUEBLA-MERIDA", "nearbyStations": [130], "id": 127}, {"addressNumber": "S/N", "districtCode": "R-N", "altitude": null, "stationType": "BIKE,TPV", "address": "128 - Orizaba-R\u00edo de Janeiro", "zipCode": "06500", "location": {"lat": 19.422148, "lon": -99.160645}, "districtName": "Roma Norte", "name": "128 ORIZABA-RIO DE JANEIRO", "nearbyStations": [121, 126, 127], "id": 128}, {"addressNumber": "S/N", "districtCode": "R-N", "altitude": null, "stationType": "BIKE", "address": "129 - Tonal\u00e1-Durango", "zipCode": null, "location": {"lat": 19.4206, "lon": -99.163312}, "districtName": "Roma Norte", "name": "129 TONAL\u00c1-DURANGO", "nearbyStations": [126, 131], "id": 129}, {"addressNumber": "S/N", "districtCode": "R-N", "altitude": null, "stationType": "BIKE", "address": "130 - M\u00e9rida-Durango", "zipCode": null, "location": {"lat": 19.421576, "lon": -99.158015}, "districtName": "Roma Norte", "name": "130 M\u00c9RIDA-DURANGO", "nearbyStations": [127, 132, 133], "id": 130}, {"addressNumber": "S/N", "districtCode": "R-N", "altitude": null, "stationType": "BIKE", "address": "131 - Colima-Jalapa", "zipCode": null, "location": {"lat": 19.419579, "lon": -99.161314}, "districtName": "Roma Norte", "name": "131 COLIMA-JALAPA", "nearbyStations": [129, 134], "id": 131}, {"addressNumber": "S/N", "districtCode": "R-N", "altitude": null, "stationType": "BIKE", "address": "132 - Colima-Frontera", "zipCode": null, "location": {"lat": 19.420667, "lon": -99.15645}, "districtName": "Roma Norte", "name": "132 COLIMA-FRONTERA", "nearbyStations": [130, 133, 135], "id": 132}, {"addressNumber": "S/N", "districtCode": "R-N", "altitude": null, "stationType": "BIKE", "address": "133 - Colima-Morelia", "zipCode": null, "location": {"lat": 19.421138, "lon": -99.154725}, "districtName": "Roma Norte", "name": "133 COLIMA-MORELIA", "nearbyStations": [130, 132, 135], "id": 133}, {"addressNumber": "S/N", "districtCode": "R-N", "altitude": null, "stationType": "BIKE,TPV", "address": "134 - \u00c1lvaro Obreg\u00f3n-Orizaba", "zipCode": null, "location": {"lat": 19.418304, "lon": -99.15956}, "districtName": "Roma Norte", "name": "134 \u00c1LVARO OBREG\u00d3N-ORIZABA", "nearbyStations": [131, 136, 137], "id": 134}, {"addressNumber": "S/N", "districtCode": "R-N", "altitude": null, "stationType": "BIKE,TPV", "address": "135 - \u00c1lvaro Obreg\u00f3n-Morelia", "zipCode": null, "location": {"lat": 19.419225, "lon": -99.155099}, "districtName": "Roma Norte", "name": "135 \u00c1LVARO OBREG\u00d3N-MORELIA", "nearbyStations": [132, 133, 137], "id": 135}, {"addressNumber": "S/N", "districtCode": "R-N", "altitude": null, "stationType": "BIKE,TPV", "address": "136 - Tonal\u00e1-\u00c1lvaro Obreg\u00f3n", "zipCode": null, "location": {"lat": 19.417715, "lon": -99.162729}, "districtName": "Roma Norte", "name": "136 \u00c1LVARO OBREG\u00d3N-TONAL\u00c1", "nearbyStations": [136], "id": 136}, {"addressNumber": "S/N", "districtCode": "R-N", "altitude": null, "stationType": "BIKE", "address": "137 - \u00c1lvaro Obreg\u00f3n-M\u00e9rida", "zipCode": null, "location": {"lat": 19.418774, "lon": -99.157081}, "districtName": "Roma Norte", "name": "137 \u00c1LVARO OBREG\u00d3N-M\u00c9RIDA", "nearbyStations": [132, 135, 138], "id": 137}, {"addressNumber": "S/N", "districtCode": "R-N", "altitude": null, "stationType": "BIKE", "address": "138 - Guanajuato-Frontera", "zipCode": null, "location": {"lat": 19.417702, "lon": -99.155313}, "districtName": "Roma Norte", "name": "138 GUANAJUATO-FRONTERA", "nearbyStations": [135, 140, 144], "id": 138}, {"addressNumber": "S/N", "districtCode": "R-N", "altitude": null, "stationType": "BIKE", "address": "139 - Tonal\u00e1-Guanajuato", "zipCode": null, "location": {"lat": 19.416128, "lon": -99.162097}, "districtName": "Roma Norte", "name": "139 TONAL\u00c1-GUANJUATO", "nearbyStations": [134, 136, 141], "id": 139}, {"addressNumber": "S/N", "districtCode": "R-N", "altitude": null, "stationType": "BIKE", "address": "140 - M\u00e9rida-Zacatecas", "zipCode": null, "location": {"lat": 19.416605, "lon": -99.156853}, "districtName": "Roma Norte", "name": "140 M\u00c9RIDA-ZACATECAS", "nearbyStations": [138, 141, 144], "id": 140}, {"addressNumber": "S/N", "districtCode": "R-N", "altitude": null, "stationType": "BIKE,TPV", "address": "141 - Zacatecas-Luis Cabrera", "zipCode": null, "location": {"lat": 19.415905, "lon": -99.15954}, "districtName": "Roma Norte", "name": "141 ZACATECAS-LUIS CABRERA", "nearbyStations": [139, 140, 143], "id": 141}, {"addressNumber": "S/N", "districtCode": "R-N", "altitude": null, "stationType": "BIKE", "address": "142 - San Luis Potos\u00ed-Eje 2 Pte. Monterrey", "zipCode": null, "location": {"lat": 19.413232, "lon": -99.164121}, "districtName": "Roma Norte", "name": "142 SAN LUIS POTOSI-EJE 2 PTE. MONTERREY", "nearbyStations": [139, 145, 146], "id": 142}, {"addressNumber": "S/N", "districtCode": "R-N", "altitude": null, "stationType": "BIKE", "address": "143 - C\u00f3rdoba-San Luis Potos\u00ed", "zipCode": null, "location": {"lat": 19.414303, "lon": -99.157542}, "districtName": "Roma Norte", "name": "143 C\u00d3RDOBA-SAN LUIS POTOS\u00cd", "nearbyStations": [141, 144, 147], "id": 143}, {"addressNumber": "S/N", "districtCode": "R-N", "altitude": null, "stationType": "BIKE", "address": "144 - Frontera-San Luis Potos\u00ed", "zipCode": null, "location": {"lat": 19.415192, "lon": -99.154837}, "districtName": "Roma Norte", "name": "144 FRONTERA-SAN LUIS POTOS\u00cd", "nearbyStations": [140, 143, 148], "id": 144}, {"addressNumber": "S/N", "districtCode": "R-N", "altitude": null, "stationType": "BIKE", "address": "145 - Eje 2 Sur Yucat\u00e1n-Chiapas", "zipCode": null, "location": {"lat": 19.41286, "lon": -99.160661}, "districtName": "Roma Norte", "name": "145 EJE 2 SUR YUCAT\u00c1N-CHIAPAS", "nearbyStations": [142, 147, 151], "id": 145}, {"addressNumber": "S/N", "districtCode": "R-N", "altitude": null, "stationType": "BIKE", "address": "146 - Coahuila-Manzanillo", "zipCode": null, "location": {"lat": 19.410737, "lon": -99.165716}, "districtName": "Roma Norte", "name": "146 COAHUILA-MANZANILLO", "nearbyStations": [150, 152, 153], "id": 146}, {"addressNumber": "S/N", "districtCode": "R-N", "altitude": null, "stationType": "BIKE", "address": "147 - Coahuila-Orizaba", "zipCode": null, "location": {"lat": 19.412182, "lon": -99.158443}, "districtName": "Roma Norte", "name": "147 COAHUILA-ORIZABA", "nearbyStations": [145, 149, 151], "id": 147}, {"addressNumber": "S/N", "districtCode": "R-N", "altitude": null, "stationType": "BIKE", "address": "148 - Coahuila-Av. Cuauht\u00e9moc", "zipCode": null, "location": {"lat": 19.412829, "lon": -99.155116}, "districtName": "Roma Norte", "name": "148 COAHUILA-AV.CUAUHTEMOC", "nearbyStations": [143, 147, 149], "id": 148}, {"addressNumber": "S/N", "districtCode": "R-N", "altitude": null, "stationType": "BIKE", "address": "149 - M\u00e9rida-Antonio Anza", "zipCode": null, "location": {"lat": 19.41199, "lon": -99.155699}, "districtName": "Roma Norte", "name": "149 M\u00c9RIDA-ANTONIO ANZA", "nearbyStations": [143, 147, 148], "id": 149}, {"addressNumber": "S/N", "districtCode": "ROM", "altitude": null, "stationType": "BIKE", "address": "151 - Campeche-Tonal\u00e1", "zipCode": null, "location": {"lat": 19.410529, "lon": -99.160873}, "districtName": "Roma Sur", "name": "151 CAMPECHE-TONAL\u00c1", "nearbyStations": [145, 147], "id": 151}, {"addressNumber": "S/N", "districtCode": "ROM", "altitude": null, "stationType": "BIKE,TPV", "address": "152 - Tlacotalpan-Campecha", "zipCode": null, "location": {"lat": 19.409098, "lon": -99.167181}, "districtName": "Roma Sur", "name": "152 TLACOTALPAN-CAMPECHE", "nearbyStations": [146, 150, 157], "id": 152}, {"addressNumber": "S/N", "districtCode": "ROM", "altitude": null, "stationType": "BIKE", "address": "153 - Manzanillo-Tlaxcala", "zipCode": null, "location": {"lat": 19.407468, "lon": -99.165141}, "districtName": "Roma Sur", "name": "153 MANZANILLO-TLAXCALA", "nearbyStations": [154, 157, 161], "id": 153}, {"addressNumber": "S/N", "districtCode": "ROM", "altitude": null, "stationType": "BIKE", "address": "155 - Jalapa-Tlaxcala", "zipCode": null, "location": {"lat": 19.408218, "lon": -99.159911}, "districtName": "Roma Sur", "name": "155 JALAPA-TLAXCALA", "nearbyStations": [151, 156, 158], "id": 155}, {"addressNumber": "S/N", "districtCode": "ROM", "altitude": null, "stationType": "BIKE", "address": "156 - Tepic-Amenalco", "zipCode": null, "location": {"lat": 19.407121, "lon": -99.162202}, "districtName": "Roma Sur", "name": "156 TEPIC-AMENALCO", "nearbyStations": [153, 162], "id": 156}, {"addressNumber": "S/N", "districtCode": "ROM", "altitude": null, "stationType": "BIKE", "address": "157 - Tepic-Tlacotalpan", "zipCode": null, "location": {"lat": 19.406236, "lon": -99.166616}, "districtName": "Roma Sur", "name": "157 TEPIC-TLACOTALPAN", "nearbyStations": [153, 154, 161], "id": 157}, {"addressNumber": "S/N", "districtCode": "ROM", "altitude": null, "stationType": "BIKE,TPV", "address": "158 - Huatabampo- Eje 1 Pte. Av. Cuauht\u00e9moc", "zipCode": null, "location": {"lat": 19.407447, "lon": -99.155717}, "districtName": "Roma Sur", "name": "158 HUATABAMPO-EJE 1PTE. CUAUHT\u00c9MOC", "nearbyStations": [159, 163], "id": 158}, {"addressNumber": "S/N", "districtCode": "ROM", "altitude": null, "stationType": "BIKE", "address": "159 - Huatabampo-Eje 1 Pte. Av. Cuauht\u00e9moc", "zipCode": null, "location": {"lat": 19.407517, "lon": -99.155373}, "districtName": "Roma Sur", "name": "159 HUATABAMPO-EJE 1 PTE. AV. CUAUHT\u00c9MOC", "nearbyStations": [158, 163], "id": 159}, {"addressNumber": "S/N", "districtCode": "ROM", "altitude": null, "stationType": "BIKE", "address": "161 - Quintana Roo-Manzanillo", "zipCode": null, "location": {"lat": 19.405533, "lon": -99.164913}, "districtName": "Roma Sur", "name": "161 QUINTANA ROO-MANZANILLO", "nearbyStations": [153, 157, 162], "id": 161}, {"addressNumber": "S/N", "districtCode": "ROM", "altitude": null, "stationType": "BIKE", "address": "162 - Tehuantepec-Medell\u00edn", "zipCode": null, "location": {"lat": 19.404907, "lon": -99.162485}, "districtName": "Roma Sur", "name": "162 TEHUANTEPEC-MEDELL\u00cdN", "nearbyStations": [156, 161, 165], "id": 162}, {"addressNumber": "S/N", "districtCode": "ROM", "altitude": null, "stationType": "BIKE", "address": "163 - Toluca-Baj\u00edo", "zipCode": null, "location": {"lat": 19.405246, "lon": -99.156431}, "districtName": "Roma Sur", "name": "163 TOLUCA-BAJ\u00cdO", "nearbyStations": [158, 159, 165], "id": 163}, {"addressNumber": "S/N", "districtCode": "ROM", "altitude": null, "stationType": "BIKE", "address": "164 - Baj\u00edo-Tlacotalpan", "zipCode": null, "location": {"lat": 19.403204, "lon": -99.16596}, "districtName": "Roma Sur", "name": "164 BAJ\u00cdO-TLACOTALPAN", "nearbyStations": [157, 161, 162], "id": 164}, {"addressNumber": "S/N", "districtCode": "ROM", "altitude": null, "stationType": "BIKE", "address": "165 - Baj\u00edo-Eje 2 Pte. Monterrey", "zipCode": null, "location": {"lat": 19.404268, "lon": -99.160503}, "districtName": "Roma Sur", "name": "165 BAJ\u00cdO-EJE 2 PTE. MONTERREY", "nearbyStations": [156, 162, 163], "id": 165}, {"addressNumber": "S/N", "districtCode": "SCA", "altitude": null, "stationType": "BIKE", "address": "409 - Azores-Divisi\u00f3n Del Norte", "zipCode": "3310", "location": {"lat": 19.365102, "lon": -99.155499}, "districtName": "Santa Cruz Atoyac", "name": "409 AZORES-DIVISI\u00d3N DEL NORTE", "nearbyStations": [408, 410, 430], "id": 409}, {"addressNumber": "S/N", "districtCode": "SCA", "altitude": null, "stationType": "BIKE", "address": "410 - Prolongaci\u00f3n Taj\u00edn-Prolongaci\u00f3n Rep\u00fablicas", "zipCode": "3310", "location": {"lat": 19.36564, "lon": -99.158063}, "districtName": "Santa Cruz Atoyac", "name": "410 PROLONGACI\u00d3N TAJ\u00cdN-PROLONGACI\u00d3N REP\u00daBLICAS", "nearbyStations": [407, 408, 409], "id": 410}, {"addressNumber": "S/N", "districtCode": "SCA", "altitude": null, "stationType": "BIKE", "address": "411 - Parroquia-Avenida M\u00e9xico-Coyoacan", "zipCode": "3310", "location": {"lat": 19.367864, "lon": -99.163626}, "districtName": "Santa Cruz Atoyac", "name": "411 PARROQUIA-AVENIDA M\u00c9XICO-COYOACAN", "nearbyStations": [412, 425, 427], "id": 411}, {"addressNumber": "S/N", "districtCode": "SCA", "altitude": null, "stationType": "BIKE,TPV", "address": "412 - Parroquia-Avenida Universidad", "zipCode": "3310", "location": {"lat": 19.3684182, "lon": -99.1654145}, "districtName": "Santa Cruz Atoyac", "name": "412 PARROQUIA-AVENIDA UNIVERSIDAD", "nearbyStations": [411, 425, 426], "id": 412}, {"addressNumber": "S/N", "districtCode": "SCA", "altitude": null, "stationType": "BIKE", "address": "406 - Parroquia Av. Mexico-Coyoacan", "zipCode": "3310", "location": {"lat": 19.367831, "lon": -99.163261}, "districtName": "Santa Cruz Atoyac", "name": "406 PARROQUIA AV. MEXICO-COYOACAN", "nearbyStations": [402, 407, 411], "id": 406}, {"addressNumber": "S/N", "districtCode": "SCA", "altitude": null, "stationType": "BIKE", "address": "427 - Avenida M\u00e9xico-Coyoacan-Av. Popocatepetl (Eje", "zipCode": "3310", "location": {"lat": 19.365023, "lon": -99.162993}, "districtName": "Santa Cruz Atoyac", "name": "427 AVENIDA M\u00c9XICO-COYOACAN-AV. POPOCATEPETL (EJE ", "nearbyStations": [411, 412, 426], "id": 427}, {"addressNumber": "S/N", "districtCode": "SCA", "altitude": null, "stationType": "BIKE", "address": "429 - Pirineos-Av. Popocatepetl (Eje 8)", "zipCode": "3310", "location": {"lat": 19.363071, "lon": -99.158292}, "districtName": "Santa Cruz Atoyac", "name": "429 PIRINEOS-AV. POPOCATEPETL (EJE 8)", "nearbyStations": [428, 430, 431], "id": 429}, {"addressNumber": "S/N", "districtCode": "SCA", "altitude": null, "stationType": "BIKE", "address": "430 - Tripoli-Av. Popocatepetl (Eje 8)", "zipCode": "3310", "location": {"lat": 19.362139, "lon": -99.154974}, "districtName": "Santa Cruz Atoyac", "name": "430 TRIPOLI-AV. POPOCATEPETL (EJE 8)", "nearbyStations": [409, 429, 431], "id": 430}, {"addressNumber": "S/N", "districtCode": "SCA", "altitude": null, "stationType": "BIKE", "address": "401 - San Lorenzo-Avenida Cuauhtemoc", "zipCode": "3310", "location": {"lat": 19.372147, "lon": -99.16158}, "districtName": "Santa Cruz Atoyac", "name": "401 SAN LORENZO-AVENIDA CUAUHTEMOC", "nearbyStations": [400, 402, 403], "id": 401}, {"addressNumber": "S/N", "districtCode": "SCA", "altitude": null, "stationType": "BIKE", "address": "403 - Uxmal-Municipio Libre", "zipCode": "3310", "location": {"lat": 19.371371, "lon": -99.158639}, "districtName": "Santa Cruz Atoyac", "name": "403 UXMAL-MUNICIPIO LIBRE", "nearbyStations": [401, 402, 405], "id": 403}, {"addressNumber": "S/N", "districtCode": "SMC", "altitude": null, "stationType": "BIKE,TPV", "address": "184 - General G\u00f3mez Pedraza-Gobernador Tiburcio Montiel", "zipCode": null, "location": {"lat": 19.41479, "lon": -99.18508}, "districtName": "San Miguel Chapultepec ", "name": "184 GRAL G\u00d3MEZ PEDRAZA-GOBERNADOR TIBURCIO M", "nearbyStations": [185, 186, 187], "id": 184}, {"addressNumber": "S/N", "districtCode": "SMC", "altitude": null, "stationType": "BIKE", "address": "185 - General Antonio L\u00e9on-General Pedro Antonio de los Santos", "zipCode": null, "location": {"lat": 19.4128, "lon": -99.1828}, "districtName": "San Miguel Chapultepec ", "name": "185 GRAL ANTONIO L\u00c9ON-GRAL PEDRO A DE LOS S.", "nearbyStations": [176, 187, 190], "id": 185}, {"addressNumber": "S/N", "districtCode": "SMC", "altitude": null, "stationType": "BIKE", "address": "186 - Gregorio V. Gelati-Francisco Molinos del C.", "zipCode": null, "location": {"lat": 19.41249, "lon": -99.18875}, "districtName": "San Miguel Chapultepec ", "name": "186 GREGORIO V GELATI-FRANCISCO MOLINOS DEL C", "nearbyStations": [187, 188, 189], "id": 186}, {"addressNumber": "S/N", "districtCode": "SMC", "altitude": null, "stationType": "BIKE", "address": "187 - Genral Cano-Gobernador Gregorio V. Gelati", "zipCode": null, "location": {"lat": 19.41123, "lon": -99.18551}, "districtName": "San Miguel Chapultepec ", "name": "187 GENERAL CANO-GOBERNADOR GREGORIO V GELATI", "nearbyStations": [176, 189, 190], "id": 187}, {"addressNumber": "S/N", "districtCode": "SMC", "altitude": null, "stationType": "BIKE,TPV", "address": "188 - Gobernador Melchor M\u00fazquiz-Gobernador Ignacio Esteva", "zipCode": null, "location": {"lat": 19.41171, "lon": -99.19014}, "districtName": "San Miguel Chapultepec ", "name": "188 GDOR MELCHOR M\u00daZQUIZ-GDOR IGNACIO ESTEVA ", "nearbyStations": [186, 187, 189], "id": 188}, {"addressNumber": "S/N", "districtCode": "SMC", "altitude": null, "stationType": "BIKE", "address": "189 - Gobernador Rafael Rebollar-Gobernador Jos\u00e9 Ceballos", "zipCode": null, "location": {"lat": 19.41004, "lon": -99.18798}, "districtName": "San Miguel Chapultepec ", "name": "189 GDOR RAFAEL REBOLLAR-GDOR JOS\u00c9 CEBALLOS", "nearbyStations": [186, 187, 188], "id": 189}, {"addressNumber": "S/N", "districtCode": "SMC", "altitude": null, "stationType": "BIKE", "address": "190 - Gobernador Ignacio Esteva-Maestro Jos\u00e9 Vasconcelos", "zipCode": null, "location": {"lat": 19.409569, "lon": -99.183833}, "districtName": "San Miguel Chapultepec ", "name": "190 GDOR IGNACIO ESTEVA-MTRO JOS\u00c9 VASCONCELOS", "nearbyStations": [177, 187], "id": 190}, {"addressNumber": "S/N", "districtCode": "SMC", "altitude": null, "stationType": "BIKE", "address": "191 - Gobernador Rafael Rebollar-Gobernador Vicente Eguia", "zipCode": null, "location": {"lat": 19.4079, "lon": -99.18795}, "districtName": "San Miguel Chapultepec ", "name": "191 GDOR RAFAEL REBOLLAR-GDOR VICENTE EGUIA", "nearbyStations": [176, 189, 190], "id": 191}, {"addressNumber": "S/N", "districtCode": "SMN", "altitude": null, "stationType": "BIKE", "address": "364 - Botichelli-Cda. De Giorgone", "zipCode": "3700", "location": {"lat": 19.383063, "lon": -99.185858}, "districtName": "Santa Mar\u00eda Nonoalco", "name": "364 BOTICHELLI-CDA. DE GIORGONE", "nearbyStations": [351, 352, 365], "id": 364}, {"addressNumber": "S/N", "districtCode": "SMN", "altitude": null, "stationType": "BIKE", "address": "365 - Holbein-Avenida Revoluci\u00f3n", "zipCode": "3700", "location": {"lat": 19.381117, "lon": -99.186687}, "districtName": "Santa Mar\u00eda Nonoalco", "name": "365 HOLBEIN-AVENIDA REVOLUCI\u00d3N", "nearbyStations": [352, 363, 364], "id": 365}, {"addressNumber": "S/N", "districtCode": "SMN", "altitude": null, "stationType": "BIKE,TPV", "address": "352 - Tintoreto-Giorgine", "zipCode": "3700", "location": {"lat": 19.384114, "lon": -99.185447}, "districtName": "Santa Mar\u00eda Nonoalco", "name": "352 TINTORETO-GIORGINE", "nearbyStations": [351, 364, 365], "id": 352}, {"addressNumber": "S/N", "districtCode": "SPP", "altitude": null, "stationType": "BIKE", "address": "351 - Calle 27-Avenida Revoluci\u00f3n", "zipCode": "3800", "location": {"lat": 19.385751, "lon": -99.186297}, "districtName": "San Pedro de los Pinos", "name": "351 CALLE 27-AVENIDA REVOLUCI\u00d3N", "nearbyStations": [332, 352, 364], "id": 351}, {"addressNumber": "S/N", "districtCode": "SPP", "altitude": null, "stationType": "BIKE,TPV", "address": "312 - Avenida 2-Calle 7", "zipCode": "3800", "location": {"lat": 19.392634, "lon": -99.183737}, "districtName": "San Pedro de los Pinos", "name": "312 AVENIDA 2-CALLE 7", "nearbyStations": [310, 311, 328], "id": 312}, {"addressNumber": "S/N", "districtCode": "SPP", "altitude": null, "stationType": "BIKE", "address": "328 - Avenida 1-Calle 7", "zipCode": "3800", "location": {"lat": 19.392586, "lon": -99.184742}, "districtName": "San Pedro de los Pinos", "name": "328 AVENIDA 1-CALLE 7", "nearbyStations": [311, 312, 329], "id": 328}, {"addressNumber": "S/N", "districtCode": "SPP", "altitude": null, "stationType": "BIKE", "address": "329 - Calle 13-Avenida 1", "zipCode": "3800", "location": {"lat": 19.390306, "lon": -99.184812}, "districtName": "San Pedro de los Pinos", "name": "329 CALLE 13-AVENIDA 1", "nearbyStations": [312, 328, 330], "id": 329}, {"addressNumber": "S/N", "districtCode": "SPP", "altitude": null, "stationType": "BIKE", "address": "330 - Calle 15-Avenida Patriotismo", "zipCode": "3800", "location": {"lat": 19.389358, "lon": -99.182606}, "districtName": "San Pedro de los Pinos", "name": "330 CALLE 15-AVENIDA PATRIOTISMO", "nearbyStations": [329, 331, 332], "id": 330}, {"addressNumber": "S/N", "districtCode": "SPP", "altitude": null, "stationType": "BIKE", "address": "331 - Avenida 2-Calle 17", "zipCode": "3800", "location": {"lat": 19.388547, "lon": -99.183971}, "districtName": "San Pedro de los Pinos", "name": "331 AVENIDA 2-CALLE 17", "nearbyStations": [329, 330, 332], "id": 331}, {"addressNumber": "S/N", "districtCode": "SPP", "altitude": null, "stationType": "BIKE", "address": "332 - Sur De Calle 27-Avenida 3", "zipCode": "3800", "location": {"lat": 19.385508, "lon": -99.183809}, "districtName": "San Pedro de los Pinos", "name": "332 SUR DE CALLE 27-AVENIDA 3", "nearbyStations": [330, 331, 333], "id": 332}, {"addressNumber": "S/N", "districtCode": "S-R", "altitude": null, "stationType": "BIKE,TPV", "address": "263 - Sadi Carnot - G\u00f3mez Farias", "zipCode": null, "location": {"lat": 19.436274, "lon": -99.158425}, "districtName": "San Rafael", "name": "263 SADI CARNOT-G\u00d3MEZ FARIAS ", "nearbyStations": [85, 86, 256], "id": 263}, {"addressNumber": "S/N", "districtCode": "S-R", "altitude": null, "stationType": "BIKE", "address": "256 - G\u00f3mez Far\u00edas Sadi Carnot", "zipCode": null, "location": {"lat": 19.4372, "lon": -99.15816}, "districtName": "San Rafael", "name": "256 G\u00d3MEZ FAR\u00cdAS-SADI CARNOT ", "nearbyStations": [254, 259], "id": 256}, {"addressNumber": "S/N", "districtCode": "S-R", "altitude": null, "stationType": "BIKE", "address": "257 - Manuel Maria Contreras-Villalongin", "zipCode": null, "location": {"lat": 19.4338, "lon": -99.16622}, "districtName": "San Rafael", "name": "257 MANUEL MARIA CONTRERAS-VILLALONGIN ", "nearbyStations": [183, 255], "id": 257}, {"addressNumber": "S/N", "districtCode": "S-R", "altitude": null, "stationType": "BIKE", "address": "254 - Alfonso Herrera-Miguel Shultz", "zipCode": null, "location": {"lat": 19.43935, "lon": -99.16007}, "districtName": "San Rafael", "name": "254 ALFONSO HERRERA-MIGUEL SHULTZ ", "nearbyStations": [160, 174, 256], "id": 254}, {"addressNumber": "S/N", "districtCode": "S-R", "altitude": null, "stationType": "BIKE", "address": "183 - Gabino Barrera-Guillermo Prieto", "zipCode": null, "location": {"lat": 19.43767, "lon": -99.16402}, "districtName": "San Rafael", "name": "183 GABINO BARRERA-GUILLERMO PRIETO", "nearbyStations": [160, 174, 255], "id": 183}, {"addressNumber": "S/N", "districtCode": "S-R", "altitude": null, "stationType": "BIKE", "address": "160 - Alfonzo Herrera-Gabino Barrera", "zipCode": null, "location": {"lat": 19.44025, "lon": -99.16346}, "districtName": "San Rafael", "name": "160 ALFONSO HERRERA-GABINO BARRERA", "nearbyStations": [174, 183, 254], "id": 160}, {"addressNumber": "s/n", "districtCode": "S-R", "altitude": null, "stationType": "BIKE", "address": "103 JOAQU\u00cdN VEL\u00c1ZQUEZ DE LE\u00d3N-GARC\u00cdA ICAZBALCETA", "zipCode": null, "location": {"lat": 19.441669, "lon": -99.165217}, "districtName": "San Rafael", "name": "103 JOAQU\u00cdN VEL\u00c1ZQUEZ DE LE\u00d3N-GARC\u00cdA ICAZBALCETA", "nearbyStations": [103], "id": 103}, {"addressNumber": "S/N", "districtCode": "S-R", "altitude": null, "stationType": "BIKE", "address": "085 - Rosas Moreno - Sullivan", "zipCode": "06470", "location": {"lat": 19.43425, "lon": -99.162508}, "districtName": "San Rafael", "name": "85 ROSAS MORENO-SULLIVAN", "nearbyStations": [1, 3, 12], "id": 85}, {"addressNumber": "S/N", "districtCode": "TAB", "altitude": null, "stationType": "BIKE,TPV", "address": "010 - Reforma - Ram\u00edrez", "zipCode": "06500", "location": {"lat": 19.433321, "lon": -99.154752}, "districtName": "Tabacalera", "name": "10 REFORMA-RAMIREZ", "nearbyStations": [26], "id": 10}, {"addressNumber": "S/N", "districtCode": "TAB", "altitude": null, "stationType": "BIKE", "address": "008 - Reforma - General Prim", "zipCode": "06500", "location": {"lat": 19.431141, "lon": -99.158317}, "districtName": "Tabacalera", "name": "8 REFORMA-GENERAL PRIM", "nearbyStations": [3, 20, 86], "id": 8}, {"addressNumber": "S/N", "districtCode": "TAB", "altitude": null, "stationType": "BIKE,TPV", "address": "270 - De la Republica-Ponciano Arriaga", "zipCode": null, "location": {"lat": 19.43676, "lon": -99.15387}, "districtName": "Tabacalera", "name": "270 DE LA REPUBLICA-PONCIANO ARRIAGA ", "nearbyStations": [270], "id": 270}, {"addressNumber": "S/N", "districtCode": "TAB", "altitude": null, "stationType": "BIKE", "address": "450 RAMOS ARIZPE-PUENTE DE ALVARADO", "zipCode": null, "location": {"lat": 19.43836, "lon": -99.152226}, "districtName": "Tabacalera", "name": "450 RAMOS ARIZPE-PUENTE DE ALVARADO", "nearbyStations": [450], "id": 450}, {"addressNumber": "S/N", "districtCode": "TLA", "altitude": null, "stationType": "BIKE", "address": "392 - Patricio Sanz-Felix Cuevas", "zipCode": "3200", "location": {"lat": 19.3730067, "lon": -99.1747749}, "districtName": "Tlacoquemecatl", "name": "392 PATRICIO SANZ-FELIX CUEVAS", "nearbyStations": [380, 393, 394], "id": 392}, {"addressNumber": "S/N", "districtCode": "TLA", "altitude": null, "stationType": "BIKE,TPV", "address": "393 - Adolfo Prieto-Felix Cuevas", "zipCode": "3200", "location": {"lat": 19.372796, "lon": -99.172558}, "districtName": "Tlacoquemecatl", "name": "393 ADOLFO PRIETO-FELIX CUEVAS", "nearbyStations": [380, 392, 394], "id": 393}, {"addressNumber": "S/N", "districtCode": "TLA", "altitude": null, "stationType": "BIKE", "address": "370 - Tlacoquemecatl-Av. Insurgentes", "zipCode": "3200", "location": {"lat": 19.378818, "lon": -99.177054}, "districtName": "Tlacoquemecatl", "name": "370 TLACOQUEMECATL-AV. INSURGENTES", "nearbyStations": [361, 369, 371], "id": 370}, {"addressNumber": "S/N", "districtCode": "TLA", "altitude": null, "stationType": "BIKE", "address": "371 - Tlacoquemecatl-Capulin", "zipCode": "3200", "location": {"lat": 19.378542, "lon": -99.174328}, "districtName": "Tlacoquemecatl", "name": "371 TLACOQUEMECATL-CAPULIN", "nearbyStations": [361, 369, 370], "id": 371}, {"addressNumber": "S/N", "districtCode": "TLA", "altitude": null, "stationType": "BIKE", "address": "380 - Moras-San Lorenzo", "zipCode": "3200", "location": {"lat": 19.374876, "lon": -99.173512}, "districtName": "Tlacoquemecatl", "name": "380 MORAS-SAN LORENZO", "nearbyStations": [392, 393, 394], "id": 380}, {"addressNumber": "S/N", "districtCode": "TLA", "altitude": null, "stationType": "BIKE", "address": "381 - San Lorenzo-Manzanas", "zipCode": "3200", "location": {"lat": 19.375541, "lon": -99.177894}, "districtName": "Tlacoquemecatl", "name": "381 SAN LORENZO-MANZANAS", "nearbyStations": [382, 387, 389], "id": 381}, {"addressNumber": "S/N", "districtCode": "TLA", "altitude": null, "stationType": "BIKE", "address": "382 - San Lorenzo-Av. Insurgentes", "zipCode": " 3200 ", "location": {"lat": 19.375591, "lon": -99.178084}, "districtName": "Tlacoquemecatl", "name": "382 SAN LORENZO-AV. INSURGENTES", "nearbyStations": [381, 387, 389], "id": 382}, {"addressNumber": "S/N", "districtCode": "XOC", "altitude": null, "stationType": "BIKE", "address": "441 - Puente Xoco-Real De Mayorazgo", "zipCode": "3330", "location": {"lat": 19.361215, "lon": -99.167527}, "districtName": "Xoco", "name": "441 PUENTE XOCO-REAL DE MAYORAZGO", "nearbyStations": [433, 440, 442], "id": 441}, {"addressNumber": "S/N", "districtCode": "XOC", "altitude": null, "stationType": "BIKE,TPV", "address": "442 - Real De Mayorazgo-Avenida M\u00e9xico-Coyoacan", "zipCode": "3330", "location": {"lat": 19.359905, "lon": -99.1653}, "districtName": "Xoco", "name": "442 REAL DE MAYORAZGO-AVENIDA M\u00c9XICO-COYOACAN", "nearbyStations": [432, 443, 444], "id": 442}, {"addressNumber": "S/N", "districtCode": "XOC", "altitude": null, "stationType": "BIKE", "address": "426 - Cerrada De Popocatepetl-Av. Popocatepetl (Eje", "zipCode": "3330", "location": {"lat": 19.365519, "lon": -99.166017}, "districtName": "Xoco", "name": "426 CERRADA DE POPOCATEPETL-AV. POPOCATEPETL (EJE ", "nearbyStations": [411, 412, 425], "id": 426}]}